{
  "success": true,
  "city": [
    {
      "id": 1,
      "name": "Brussel",
      "zip": 1000,
      "province": null,
      "lat": 50.8427501,
      "lng": 4.3515499
    },
    {
      "id": 2,
      "name": "Bruxelles",
      "zip": 1000,
      "province": null,
      "lat": 50.8427501,
      "lng": 4.3515499
    },
    {
      "id": 3,
      "name": "Brusselse Hoofdstedelijke Raad",
      "zip": 1005,
      "province": null,
      "lat": 50.8448768,
      "lng": 4.3514335
    },
    {
      "id": 4,
      "name": "Conseil Region Bruxelles-Capitale",
      "zip": 1005,
      "province": null,
      "lat": 50.847857,
      "lng": 4.367408
    },
    {
      "id": 5,
      "name": "Chambre des Représentants",
      "zip": 1008,
      "province": null,
      "lat": 50.8465568,
      "lng": 4.3646622
    },
    {
      "id": 6,
      "name": "Kamer van Volksvertegenwoordigers",
      "zip": 1008,
      "province": null,
      "lat": 50.8465568,
      "lng": 4.3646622
    },
    {
      "id": 7,
      "name": "Senat de Belgique",
      "zip": 1009,
      "province": null,
      "lat": 50.79834,
      "lng": 4.39565
    },
    {
      "id": 8,
      "name": "Rijksadministratief Centrum",
      "zip": 1010,
      "province": null,
      "lat": 50.8243276,
      "lng": 4.5139543
    },
    {
      "id": 9,
      "name": "Parlement de la Communauté française",
      "zip": 1012,
      "province": null,
      "lat": 50.8466387,
      "lng": 4.3619924
    },
    {
      "id": 10,
      "name": "Brussel (Laken)",
      "zip": 1020,
      "province": null,
      "lat": 50.884218,
      "lng": 4.3580002
    },
    {
      "id": 11,
      "name": "Bruxelles (Laeken)",
      "zip": 1020,
      "province": null,
      "lat": 50.884218,
      "lng": 4.3580002
    },
    {
      "id": 12,
      "name": "Laeken (Bruxelles)",
      "zip": 1020,
      "province": null,
      "lat": 50.884218,
      "lng": 4.3580002
    },
    {
      "id": 13,
      "name": "Laken (Brussel)",
      "zip": 1020,
      "province": null,
      "lat": 50.884218,
      "lng": 4.3580002
    },
    {
      "id": 14,
      "name": "Brussel (Schaarbeek)",
      "zip": 1030,
      "province": null,
      "lat": 50.86744,
      "lng": 4.37727
    },
    {
      "id": 15,
      "name": "Bruxelles (Schaerbeek)",
      "zip": 1030,
      "province": null,
      "lat": 50.86744,
      "lng": 4.37727
    },
    {
      "id": 16,
      "name": "Schaarbeek",
      "zip": 1030,
      "province": null,
      "lat": 50.86744,
      "lng": 4.37727
    },
    {
      "id": 17,
      "name": "Schaerbeek",
      "zip": 1030,
      "province": null,
      "lat": 50.86744,
      "lng": 4.37727
    },
    {
      "id": 18,
      "name": "Brussel (Etterbeek)",
      "zip": 1040,
      "province": null,
      "lat": 50.832177,
      "lng": 4.388949
    },
    {
      "id": 19,
      "name": "Bruxelles (Etterbeek)",
      "zip": 1040,
      "province": null,
      "lat": 50.832177,
      "lng": 4.388949
    },
    {
      "id": 20,
      "name": "Etterbeek",
      "zip": 1040,
      "province": null,
      "lat": 50.832177,
      "lng": 4.388949
    },
    {
      "id": 21,
      "name": "VRT",
      "zip": 1043,
      "province": null,
      "lat": 50.8530691,
      "lng": 4.4043556
    },
    {
      "id": 22,
      "name": "RTBF",
      "zip": 1044,
      "province": null,
      "lat": 50.85079,
      "lng": 4.402889
    },
    {
      "id": 23,
      "name": "D.I.V.",
      "zip": 1045,
      "province": null,
      "lat": 50.8581573,
      "lng": 4.3599077
    },
    {
      "id": 24,
      "name": "Europees Parlement",
      "zip": 1047,
      "province": null,
      "lat": 50.8388665,
      "lng": 4.3749766
    },
    {
      "id": 25,
      "name": "Parlement Européen",
      "zip": 1047,
      "province": null,
      "lat": 50.8388665,
      "lng": 4.3749766
    },
    {
      "id": 26,
      "name": "E.U.-Raad",
      "zip": 1048,
      "province": null,
      "lat": 50.847857,
      "lng": 4.367408
    },
    {
      "id": 27,
      "name": "U.E.-Conseil",
      "zip": 1048,
      "province": null,
      "lat": 50.847857,
      "lng": 4.367408
    },
    {
      "id": 28,
      "name": "E.U.-Commissie",
      "zip": 1049,
      "province": null,
      "lat": 50.83862,
      "lng": 4.35023
    },
    {
      "id": 29,
      "name": "U.E.-Commission",
      "zip": 1049,
      "province": null,
      "lat": 50.8393846,
      "lng": 4.3643523
    },
    {
      "id": 30,
      "name": "Brussel (Elsene)",
      "zip": 1050,
      "province": null,
      "lat": 50.8333333,
      "lng": 4.3666667
    },
    {
      "id": 31,
      "name": "Bruxelles (Ixelles)",
      "zip": 1050,
      "province": null,
      "lat": 50.8333333,
      "lng": 4.3666667
    },
    {
      "id": 32,
      "name": "Elsene",
      "zip": 1050,
      "province": null,
      "lat": 50.8333333,
      "lng": 4.3666667
    },
    {
      "id": 33,
      "name": "Ixelles",
      "zip": 1050,
      "province": null,
      "lat": 50.8333333,
      "lng": 4.3666667
    },
    {
      "id": 34,
      "name": "Brussel (Sint-Gillis)",
      "zip": 1060,
      "province": null,
      "lat": 50.8301436,
      "lng": 4.3402184
    },
    {
      "id": 35,
      "name": "Bruxelles (Saint-Gilles)",
      "zip": 1060,
      "province": null,
      "lat": 50.8301436,
      "lng": 4.3402184
    },
    {
      "id": 36,
      "name": "Saint-Gilles",
      "zip": 1060,
      "province": null,
      "lat": 50.8301436,
      "lng": 4.3402184
    },
    {
      "id": 37,
      "name": "Sint-Gillis",
      "zip": 1060,
      "province": null,
      "lat": 50.8301436,
      "lng": 4.3402184
    },
    {
      "id": 38,
      "name": "Anderlecht",
      "zip": 1070,
      "province": null,
      "lat": 50.8365808,
      "lng": 4.308187
    },
    {
      "id": 39,
      "name": "Brussel (Anderlecht)",
      "zip": 1070,
      "province": null,
      "lat": 50.8365808,
      "lng": 4.308187
    },
    {
      "id": 40,
      "name": "Bruxelles (Anderlecht)",
      "zip": 1070,
      "province": null,
      "lat": 50.8365808,
      "lng": 4.308187
    },
    {
      "id": 41,
      "name": "Brussel (Sint-Jans-Molenbeek)",
      "zip": 1080,
      "province": null,
      "lat": 50.85,
      "lng": 4.3166667
    },
    {
      "id": 42,
      "name": "Bruxelles (Molenbeek-Saint-Jean)",
      "zip": 1080,
      "province": null,
      "lat": 50.85,
      "lng": 4.3166667
    },
    {
      "id": 43,
      "name": "Molenbeek-Saint-Jean",
      "zip": 1080,
      "province": null,
      "lat": 50.85,
      "lng": 4.3166667
    },
    {
      "id": 44,
      "name": "Sint-Jans-Molenbeek",
      "zip": 1080,
      "province": null,
      "lat": 50.85,
      "lng": 4.3166667
    },
    {
      "id": 45,
      "name": "Brussel (Koekelberg)",
      "zip": 1081,
      "province": null,
      "lat": 50.859029,
      "lng": 4.330334
    },
    {
      "id": 46,
      "name": "Bruxelles (Koekelberg)",
      "zip": 1081,
      "province": null,
      "lat": 50.859029,
      "lng": 4.330334
    },
    {
      "id": 47,
      "name": "Koekelberg",
      "zip": 1081,
      "province": null,
      "lat": 50.859029,
      "lng": 4.330334
    },
    {
      "id": 48,
      "name": "Berchem-Sainte-Agathe",
      "zip": 1082,
      "province": null,
      "lat": 50.865341,
      "lng": 4.295748
    },
    {
      "id": 49,
      "name": "Brussel (Sint-Agatha-Berchem)",
      "zip": 1082,
      "province": null,
      "lat": 50.865341,
      "lng": 4.295748
    },
    {
      "id": 50,
      "name": "Bruxelles (Berchem-Sainte-Agathe)",
      "zip": 1082,
      "province": null,
      "lat": 50.865341,
      "lng": 4.295748
    },
    {
      "id": 51,
      "name": "Sint-Agatha-Berchem",
      "zip": 1082,
      "province": null,
      "lat": 50.865341,
      "lng": 4.295748
    },
    {
      "id": 52,
      "name": "Brussel (Ganshoren)",
      "zip": 1083,
      "province": null,
      "lat": 50.87113,
      "lng": 4.30253
    },
    {
      "id": 53,
      "name": "Bruxelles (Ganshoren)",
      "zip": 1083,
      "province": null,
      "lat": 50.87113,
      "lng": 4.30253
    },
    {
      "id": 54,
      "name": "Ganshoren",
      "zip": 1083,
      "province": null,
      "lat": 50.87113,
      "lng": 4.30253
    },
    {
      "id": 55,
      "name": "Brussel (Jette)",
      "zip": 1090,
      "province": null,
      "lat": 50.8730556,
      "lng": 4.3338889
    },
    {
      "id": 56,
      "name": "Bruxelles (Jette)",
      "zip": 1090,
      "province": null,
      "lat": 50.8730556,
      "lng": 4.3338889
    },
    {
      "id": 57,
      "name": "Jette",
      "zip": 1090,
      "province": null,
      "lat": 50.8730556,
      "lng": 4.3338889
    },
    {
      "id": 58,
      "name": "Postcheque",
      "zip": 1100,
      "province": null,
      "lat": 50.81349,
      "lng": 4.3844
    },
    {
      "id": 59,
      "name": "SOC",
      "zip": 1105,
      "province": null,
      "lat": 50.0107,
      "lng": 5.73572
    },
    {
      "id": 60,
      "name": "NAVO - NATO",
      "zip": 1110,
      "province": null,
      "lat": 50.8762831,
      "lng": 4.4219707
    },
    {
      "id": 61,
      "name": "OTAN - NATO",
      "zip": 1110,
      "province": null,
      "lat": 50.8762831,
      "lng": 4.4219707
    },
    {
      "id": 62,
      "name": "Brussel (Neder-Over-Heembeek)",
      "zip": 1120,
      "province": null,
      "lat": 50.905667,
      "lng": 4.396911
    },
    {
      "id": 63,
      "name": "Bruxelles (Neder-Over-Heembeek)",
      "zip": 1120,
      "province": null,
      "lat": 50.905667,
      "lng": 4.396911
    },
    {
      "id": 64,
      "name": "Neder-Over-Heembeek (Bru.)",
      "zip": 1120,
      "province": null,
      "lat": 50.905667,
      "lng": 4.396911
    },
    {
      "id": 65,
      "name": "Brussel (Haren)",
      "zip": 1130,
      "province": null,
      "lat": 50.89562,
      "lng": 4.41675
    },
    {
      "id": 66,
      "name": "Bruxelles (Haeren)",
      "zip": 1130,
      "province": null,
      "lat": 50.8921287,
      "lng": 4.4175965
    },
    {
      "id": 67,
      "name": "Haren (Brussel)",
      "zip": 1130,
      "province": null,
      "lat": 50.89562,
      "lng": 4.41675
    },
    {
      "id": 68,
      "name": "Haren (Bruxelles)",
      "zip": 1130,
      "province": null,
      "lat": 50.89562,
      "lng": 4.41675
    },
    {
      "id": 69,
      "name": "Brussel (Evere)",
      "zip": 1140,
      "province": null,
      "lat": 50.8666667,
      "lng": 4.4
    },
    {
      "id": 70,
      "name": "Bruxelles (Evere)",
      "zip": 1140,
      "province": null,
      "lat": 50.8666667,
      "lng": 4.4
    },
    {
      "id": 71,
      "name": "Evere",
      "zip": 1140,
      "province": null,
      "lat": 50.8666667,
      "lng": 4.4
    },
    {
      "id": 72,
      "name": "Brussel (Sint-Pieters-Woluwe)",
      "zip": 1150,
      "province": null,
      "lat": 50.83618,
      "lng": 4.45163
    },
    {
      "id": 73,
      "name": "Bruxelles (Woluwe-Saint-Pierre)",
      "zip": 1150,
      "province": null,
      "lat": 50.83618,
      "lng": 4.45163
    },
    {
      "id": 74,
      "name": "Sint-Pieters-Woluwe",
      "zip": 1150,
      "province": null,
      "lat": 50.83618,
      "lng": 4.45163
    },
    {
      "id": 75,
      "name": "Woluwe-Saint-Pierre",
      "zip": 1150,
      "province": null,
      "lat": 50.83618,
      "lng": 4.45163
    },
    {
      "id": 76,
      "name": "Auderghem",
      "zip": 1160,
      "province": null,
      "lat": 50.8166667,
      "lng": 4.4333333
    },
    {
      "id": 77,
      "name": "Brussel (Oudergem)",
      "zip": 1160,
      "province": null,
      "lat": 50.8166667,
      "lng": 4.4333333
    },
    {
      "id": 78,
      "name": "Bruxelles (Auderghem)",
      "zip": 1160,
      "province": null,
      "lat": 50.81643,
      "lng": 4.42649
    },
    {
      "id": 79,
      "name": "Oudergem",
      "zip": 1160,
      "province": null,
      "lat": 50.8166667,
      "lng": 4.4333333
    },
    {
      "id": 80,
      "name": "Brussel (Watermaal-Bosvoorde)",
      "zip": 1170,
      "province": null,
      "lat": 50.800919,
      "lng": 4.414715
    },
    {
      "id": 81,
      "name": "Bruxelles (Watermael-Boitsfort)",
      "zip": 1170,
      "province": null,
      "lat": 50.79749,
      "lng": 4.42436
    },
    {
      "id": 82,
      "name": "Watermaal-Bosvoorde",
      "zip": 1170,
      "province": null,
      "lat": 50.800919,
      "lng": 4.414715
    },
    {
      "id": 83,
      "name": "Watermael-Boitsfort",
      "zip": 1170,
      "province": null,
      "lat": 50.79749,
      "lng": 4.42436
    },
    {
      "id": 84,
      "name": "Brussel (Ukkel)",
      "zip": 1180,
      "province": null,
      "lat": 50.8,
      "lng": 4.3333333
    },
    {
      "id": 85,
      "name": "Bruxelles (Uccle)",
      "zip": 1180,
      "province": null,
      "lat": 50.80241,
      "lng": 4.34067
    },
    {
      "id": 86,
      "name": "Uccle",
      "zip": 1180,
      "province": null,
      "lat": 50.8,
      "lng": 4.3333333
    },
    {
      "id": 87,
      "name": "Ukkel",
      "zip": 1180,
      "province": null,
      "lat": 50.8,
      "lng": 4.3333333
    },
    {
      "id": 88,
      "name": "Brussel (Vorst)",
      "zip": 1190,
      "province": null,
      "lat": 50.81745,
      "lng": 4.32675
    },
    {
      "id": 89,
      "name": "Bruxelles (Forest)",
      "zip": 1190,
      "province": null,
      "lat": 50.81745,
      "lng": 4.32675
    },
    {
      "id": 90,
      "name": "Forest",
      "zip": 1190,
      "province": null,
      "lat": 50.81745,
      "lng": 4.32675
    },
    {
      "id": 91,
      "name": "Vorst",
      "zip": 1190,
      "province": null,
      "lat": 50.81745,
      "lng": 4.32675
    },
    {
      "id": 92,
      "name": "Brussel (Sint-Lambrechts-Woluwe)",
      "zip": 1200,
      "province": null,
      "lat": 50.842365,
      "lng": 4.423892
    },
    {
      "id": 93,
      "name": "Bruxelles (Woluwe-Saint-Lambert)",
      "zip": 1200,
      "province": null,
      "lat": 50.842365,
      "lng": 4.423892
    },
    {
      "id": 94,
      "name": "Sint-Lambrechts-Woluwe",
      "zip": 1200,
      "province": null,
      "lat": 50.842365,
      "lng": 4.423892
    },
    {
      "id": 95,
      "name": "Woluwe-Saint-Lambert",
      "zip": 1200,
      "province": null,
      "lat": 50.842365,
      "lng": 4.423892
    },
    {
      "id": 96,
      "name": "R.T.L. - T.V.I.",
      "zip": 1201,
      "province": null,
      "lat": 50.8574037,
      "lng": 4.4297282
    },
    {
      "id": 97,
      "name": "Brussel (Sint-Joost-ten-Node)",
      "zip": 1210,
      "province": null,
      "lat": 50.8537715,
      "lng": 4.3704657
    },
    {
      "id": 98,
      "name": "Bruxelles (Saint-Josse-ten-Noode)",
      "zip": 1210,
      "province": null,
      "lat": 50.8537715,
      "lng": 4.3704657
    },
    {
      "id": 99,
      "name": "Saint-Josse-ten-Noode",
      "zip": 1210,
      "province": null,
      "lat": 50.8537715,
      "lng": 4.3704657
    },
    {
      "id": 100,
      "name": "Sint-Joost-ten-Node",
      "zip": 1210,
      "province": null,
      "lat": 50.8537715,
      "lng": 4.3704657
    },
    {
      "id": 101,
      "name": "Limal",
      "zip": 1300,
      "province": null,
      "lat": 50.6934506,
      "lng": 4.5732954
    },
    {
      "id": 102,
      "name": "Wavre",
      "zip": 1300,
      "province": null,
      "lat": 50.7158951,
      "lng": 4.6128257
    },
    {
      "id": 103,
      "name": "Bierges",
      "zip": 1301,
      "province": null,
      "lat": 50.7113795,
      "lng": 4.5871684
    },
    {
      "id": 104,
      "name": "La Hulpe",
      "zip": 1310,
      "province": null,
      "lat": 50.7309955,
      "lng": 4.4856707
    },
    {
      "id": 105,
      "name": "Glimes",
      "zip": 1315,
      "province": null,
      "lat": 50.6796,
      "lng": 4.83774
    },
    {
      "id": 106,
      "name": "Opprebais",
      "zip": 1315,
      "province": null,
      "lat": 50.67946,
      "lng": 4.79819
    },
    {
      "id": 107,
      "name": "Piètrebais",
      "zip": 1315,
      "province": null,
      "lat": 50.72796,
      "lng": 4.76381
    },
    {
      "id": 108,
      "name": "Roux-Miroir",
      "zip": 1315,
      "province": null,
      "lat": 50.70811,
      "lng": 4.78513
    },
    {
      "id": 109,
      "name": "Incourt",
      "zip": 1315,
      "province": null,
      "lat": 50.69188,
      "lng": 4.7966
    },
    {
      "id": 110,
      "name": "Hamme-Mille",
      "zip": 1320,
      "province": null,
      "lat": 50.77953,
      "lng": 4.71694
    },
    {
      "id": 111,
      "name": "l'Ecluse",
      "zip": 1320,
      "province": null,
      "lat": 50.77184,
      "lng": 4.83183
    },
    {
      "id": 112,
      "name": "Nodebais",
      "zip": 1320,
      "province": null,
      "lat": 50.77319,
      "lng": 4.73555
    },
    {
      "id": 113,
      "name": "Tourinnes-la-Grosse",
      "zip": 1320,
      "province": null,
      "lat": 50.78281,
      "lng": 4.74445
    },
    {
      "id": 114,
      "name": "Beauvechain",
      "zip": 1320,
      "province": null,
      "lat": 50.7554922,
      "lng": 4.767726
    },
    {
      "id": 115,
      "name": "Bonlez",
      "zip": 1325,
      "province": null,
      "lat": 50.70193,
      "lng": 4.68948
    },
    {
      "id": 116,
      "name": "Corroy-le-Grand",
      "zip": 1325,
      "province": null,
      "lat": 50.66206,
      "lng": 4.67458
    },
    {
      "id": 117,
      "name": "Dion-Valmont",
      "zip": 1325,
      "province": null,
      "lat": 50.6974838,
      "lng": 4.6588254
    },
    {
      "id": 118,
      "name": "Longueville",
      "zip": 1325,
      "province": null,
      "lat": 50.70231,
      "lng": 4.74014
    },
    {
      "id": 119,
      "name": "Chaumont-Gistoux",
      "zip": 1325,
      "province": null,
      "lat": 50.67687,
      "lng": 4.71943
    },
    {
      "id": 120,
      "name": "Rixensart",
      "zip": 1330,
      "province": null,
      "lat": 50.7109736,
      "lng": 4.5306325
    },
    {
      "id": 121,
      "name": "Rosières",
      "zip": 1331,
      "province": null,
      "lat": 50.73015,
      "lng": 4.54441
    },
    {
      "id": 122,
      "name": "Genval",
      "zip": 1332,
      "province": null,
      "lat": 50.7211,
      "lng": 4.49388
    },
    {
      "id": 123,
      "name": "Ottignies",
      "zip": 1340,
      "province": null,
      "lat": 50.665465,
      "lng": 4.5669046
    },
    {
      "id": 124,
      "name": "Ottignies-Louvain-la-Neuve",
      "zip": 1340,
      "province": null,
      "lat": 50.665465,
      "lng": 4.5669046
    },
    {
      "id": 125,
      "name": "Céroux-Mousty",
      "zip": 1341,
      "province": null,
      "lat": 50.660369,
      "lng": 4.5204882
    },
    {
      "id": 126,
      "name": "Limelette",
      "zip": 1342,
      "province": null,
      "lat": 50.6846872,
      "lng": 4.571335
    },
    {
      "id": 127,
      "name": "Louvain-la-Neuve",
      "zip": 1348,
      "province": null,
      "lat": 50.6738567,
      "lng": 4.6151693
    },
    {
      "id": 128,
      "name": "Enines",
      "zip": 1350,
      "province": null,
      "lat": 50.69366,
      "lng": 4.92655
    },
    {
      "id": 129,
      "name": "Folx-les-Caves",
      "zip": 1350,
      "province": null,
      "lat": 50.66042,
      "lng": 4.9376
    },
    {
      "id": 130,
      "name": "Jandrain-Jandrenouille",
      "zip": 1350,
      "province": null,
      "lat": 50.67368,
      "lng": 4.97969
    },
    {
      "id": 131,
      "name": "Jauche",
      "zip": 1350,
      "province": null,
      "lat": 50.68298,
      "lng": 4.9547
    },
    {
      "id": 132,
      "name": "Marilles",
      "zip": 1350,
      "province": null,
      "lat": 50.70716,
      "lng": 4.95274
    },
    {
      "id": 133,
      "name": "Noduwez",
      "zip": 1350,
      "province": null,
      "lat": 50.72923,
      "lng": 4.96791
    },
    {
      "id": 134,
      "name": "Orp-le-Grand",
      "zip": 1350,
      "province": null,
      "lat": 50.70297,
      "lng": 4.98973
    },
    {
      "id": 135,
      "name": "Orp-Jauche",
      "zip": 1350,
      "province": null,
      "lat": 50.68298,
      "lng": 4.9547
    },
    {
      "id": 136,
      "name": "Linsmeau",
      "zip": 1357,
      "province": null,
      "lat": 50.73452,
      "lng": 5.00155
    },
    {
      "id": 137,
      "name": "Neerheylissem",
      "zip": 1357,
      "province": null,
      "lat": 50.75693,
      "lng": 4.98819
    },
    {
      "id": 138,
      "name": "Opheylissem",
      "zip": 1357,
      "province": null,
      "lat": 50.74699,
      "lng": 4.97628
    },
    {
      "id": 139,
      "name": "Hélécine",
      "zip": 1357,
      "province": null,
      "lat": 50.75,
      "lng": 4.9833333
    },
    {
      "id": 140,
      "name": "Malèves-Sainte-Marie-Wastines",
      "zip": 1360,
      "province": null,
      "lat": 50.65503,
      "lng": 4.77943
    },
    {
      "id": 141,
      "name": "Orbais",
      "zip": 1360,
      "province": null,
      "lat": 50.63757,
      "lng": 4.76323
    },
    {
      "id": 142,
      "name": "Thorembais-les-Béguines",
      "zip": 1360,
      "province": null,
      "lat": 50.65799,
      "lng": 4.81728
    },
    {
      "id": 143,
      "name": "Thorembais-Saint-Trond",
      "zip": 1360,
      "province": null,
      "lat": 50.63465,
      "lng": 4.78646
    },
    {
      "id": 144,
      "name": "Perwez",
      "zip": 1360,
      "province": null,
      "lat": 50.62395,
      "lng": 4.81503
    },
    {
      "id": 145,
      "name": "Autre-Eglise",
      "zip": 1367,
      "province": null,
      "lat": 50.66926,
      "lng": 4.90375
    },
    {
      "id": 146,
      "name": "Bomal (Bt.)",
      "zip": 1367,
      "province": null,
      "lat": 50.6711,
      "lng": 4.87332
    },
    {
      "id": 147,
      "name": "Geest-Gérompont-Petit-Rosière",
      "zip": 1367,
      "province": null,
      "lat": 50.64088,
      "lng": 4.85744
    },
    {
      "id": 148,
      "name": "Gérompont",
      "zip": 1367,
      "province": null,
      "lat": 50.64847,
      "lng": 4.88169
    },
    {
      "id": 149,
      "name": "Grand-Rosière-Hottomont",
      "zip": 1367,
      "province": null,
      "lat": 50.6316,
      "lng": 4.86494
    },
    {
      "id": 150,
      "name": "Huppaye",
      "zip": 1367,
      "province": null,
      "lat": 50.69347,
      "lng": 4.89383
    },
    {
      "id": 151,
      "name": "Mont-Saint-André",
      "zip": 1367,
      "province": null,
      "lat": 50.65524,
      "lng": 4.86451
    },
    {
      "id": 152,
      "name": "Ramillies",
      "zip": 1367,
      "province": null,
      "lat": 50.6333333,
      "lng": 4.9
    },
    {
      "id": 153,
      "name": "Dongelberg",
      "zip": 1370,
      "province": null,
      "lat": 50.70338,
      "lng": 4.82007
    },
    {
      "id": 154,
      "name": "Jauchelette",
      "zip": 1370,
      "province": null,
      "lat": 50.68631,
      "lng": 4.84358
    },
    {
      "id": 155,
      "name": "Jodoigne-Souveraine",
      "zip": 1370,
      "province": null,
      "lat": 50.70898,
      "lng": 4.83678
    },
    {
      "id": 156,
      "name": "Lathuy",
      "zip": 1370,
      "province": null,
      "lat": 50.72366,
      "lng": 4.82613
    },
    {
      "id": 157,
      "name": "Mélin",
      "zip": 1370,
      "province": null,
      "lat": 50.73979,
      "lng": 4.82852
    },
    {
      "id": 158,
      "name": "Piétrain",
      "zip": 1370,
      "province": null,
      "lat": 50.72476,
      "lng": 4.9207
    },
    {
      "id": 159,
      "name": "Saint-Jean-Geest",
      "zip": 1370,
      "province": null,
      "lat": 50.73964,
      "lng": 4.89548
    },
    {
      "id": 160,
      "name": "Saint-Remy-Geest",
      "zip": 1370,
      "province": null,
      "lat": 50.74636,
      "lng": 4.86019
    },
    {
      "id": 161,
      "name": "Zétrud-Lumay",
      "zip": 1370,
      "province": null,
      "lat": 50.75792,
      "lng": 4.8859
    },
    {
      "id": 162,
      "name": "Jodoigne",
      "zip": 1370,
      "province": null,
      "lat": 50.72336,
      "lng": 4.87115
    },
    {
      "id": 163,
      "name": "Couture-Saint-Germain",
      "zip": 1380,
      "province": null,
      "lat": 50.67502,
      "lng": 4.47252
    },
    {
      "id": 164,
      "name": "Lasne-Chapelle-Saint-Lambert",
      "zip": 1380,
      "province": null,
      "lat": 50.693345,
      "lng": 4.5039619
    },
    {
      "id": 165,
      "name": "Maransart",
      "zip": 1380,
      "province": null,
      "lat": 50.65953,
      "lng": 4.46745
    },
    {
      "id": 166,
      "name": "Ohain",
      "zip": 1380,
      "province": null,
      "lat": 50.69907,
      "lng": 4.46919
    },
    {
      "id": 167,
      "name": "Plancenoit",
      "zip": 1380,
      "province": null,
      "lat": 50.66196,
      "lng": 4.42863
    },
    {
      "id": 168,
      "name": "Lasne",
      "zip": 1380,
      "province": null,
      "lat": 50.68736,
      "lng": 4.48135
    },
    {
      "id": 169,
      "name": "Archennes",
      "zip": 1390,
      "province": null,
      "lat": 50.7524768,
      "lng": 4.669868
    },
    {
      "id": 170,
      "name": "Biez",
      "zip": 1390,
      "province": null,
      "lat": 50.7267436,
      "lng": 4.7019841
    },
    {
      "id": 171,
      "name": "Bossut-Gottechain",
      "zip": 1390,
      "province": null,
      "lat": 50.7613181,
      "lng": 4.6941056
    },
    {
      "id": 172,
      "name": "Nethen",
      "zip": 1390,
      "province": null,
      "lat": 50.7837825,
      "lng": 4.6741168
    },
    {
      "id": 173,
      "name": "Grez-Doiceau",
      "zip": 1390,
      "province": null,
      "lat": 50.7385816,
      "lng": 4.6972809
    },
    {
      "id": 174,
      "name": "Monstreux",
      "zip": 1400,
      "province": null,
      "lat": 50.59803,
      "lng": 4.28884
    },
    {
      "id": 175,
      "name": "Nivelles",
      "zip": 1400,
      "province": null,
      "lat": 50.5886574,
      "lng": 4.3308649
    },
    {
      "id": 176,
      "name": "Baulers",
      "zip": 1401,
      "province": null,
      "lat": 50.61341,
      "lng": 4.35387
    },
    {
      "id": 177,
      "name": "Thines",
      "zip": 1402,
      "province": null,
      "lat": 50.59734,
      "lng": 4.36846
    },
    {
      "id": 178,
      "name": "Bornival",
      "zip": 1404,
      "province": null,
      "lat": 50.60184,
      "lng": 4.27629
    },
    {
      "id": 179,
      "name": "Waterloo",
      "zip": 1410,
      "province": null,
      "lat": 50.71469,
      "lng": 4.3991
    },
    {
      "id": 180,
      "name": "Promo-Control",
      "zip": 1414,
      "province": null,
      "lat": 50.7180368,
      "lng": 4.3829613
    },
    {
      "id": 181,
      "name": "Braine-l'Alleud",
      "zip": 1420,
      "province": null,
      "lat": 50.6969022,
      "lng": 4.3538379
    },
    {
      "id": 182,
      "name": "Ophain-Bois-Seigneur-Isaac",
      "zip": 1421,
      "province": null,
      "lat": 50.66642,
      "lng": 4.34886
    },
    {
      "id": 183,
      "name": "Lillois-Witterzée",
      "zip": 1428,
      "province": null,
      "lat": 50.64567,
      "lng": 4.36712
    },
    {
      "id": 184,
      "name": "Bierghes",
      "zip": 1430,
      "province": null,
      "lat": 50.6956998,
      "lng": 4.1195104
    },
    {
      "id": 185,
      "name": "Quenast",
      "zip": 1430,
      "province": null,
      "lat": 50.6729162,
      "lng": 4.157332
    },
    {
      "id": 186,
      "name": "Rebecq-Rognon",
      "zip": 1430,
      "province": null,
      "lat": 50.6659293,
      "lng": 4.1326563
    },
    {
      "id": 187,
      "name": "Rebecq",
      "zip": 1430,
      "province": null,
      "lat": 50.665625,
      "lng": 4.132162
    },
    {
      "id": 188,
      "name": "Corbais",
      "zip": 1435,
      "province": null,
      "lat": 50.6462709,
      "lng": 4.6553809
    },
    {
      "id": 189,
      "name": "Hévillers",
      "zip": 1435,
      "province": null,
      "lat": 50.6215801,
      "lng": 4.6154602
    },
    {
      "id": 190,
      "name": "Mont-Saint-Guibert",
      "zip": 1435,
      "province": null,
      "lat": 50.6348554,
      "lng": 4.6107385
    },
    {
      "id": 191,
      "name": "Wauthier-Braine",
      "zip": 1440,
      "province": null,
      "lat": 50.68121,
      "lng": 4.29806
    },
    {
      "id": 192,
      "name": "Braine-le-Château",
      "zip": 1440,
      "province": null,
      "lat": 50.6802986,
      "lng": 4.2689347
    },
    {
      "id": 193,
      "name": "Chastre-Villeroux-Blanmont",
      "zip": 1450,
      "province": null,
      "lat": 50.6,
      "lng": 4.6333333
    },
    {
      "id": 194,
      "name": "Cortil-Noirmont",
      "zip": 1450,
      "province": null,
      "lat": 50.58136,
      "lng": 4.64284
    },
    {
      "id": 195,
      "name": "Gentinnes",
      "zip": 1450,
      "province": null,
      "lat": 50.57796,
      "lng": 4.60673
    },
    {
      "id": 196,
      "name": "Saint-Géry",
      "zip": 1450,
      "province": null,
      "lat": 50.58046,
      "lng": 4.61236
    },
    {
      "id": 197,
      "name": "Chastre",
      "zip": 1450,
      "province": null,
      "lat": 50.6,
      "lng": 4.6333333
    },
    {
      "id": 198,
      "name": "Nil-Saint-Vincent-Saint-Martin",
      "zip": 1457,
      "province": null,
      "lat": 50.64214,
      "lng": 4.67982
    },
    {
      "id": 199,
      "name": "Tourinnes-Saint-Lambert",
      "zip": 1457,
      "province": null,
      "lat": 50.63932,
      "lng": 4.72389
    },
    {
      "id": 200,
      "name": "Walhain-Saint-Paul",
      "zip": 1457,
      "province": null,
      "lat": 50.632777,
      "lng": 4.7025798
    },
    {
      "id": 201,
      "name": "Walhain",
      "zip": 1457,
      "province": null,
      "lat": 50.6180556,
      "lng": 4.6947222
    },
    {
      "id": 202,
      "name": "Virginal-Samme",
      "zip": 1460,
      "province": null,
      "lat": 50.63983,
      "lng": 4.20587
    },
    {
      "id": 203,
      "name": "Ittre",
      "zip": 1460,
      "province": null,
      "lat": 50.6326887,
      "lng": 4.2632352
    },
    {
      "id": 204,
      "name": "Haut-Ittre",
      "zip": 1461,
      "province": null,
      "lat": 50.65357,
      "lng": 4.29825
    },
    {
      "id": 205,
      "name": "Baisy-Thy",
      "zip": 1470,
      "province": null,
      "lat": 50.5969876,
      "lng": 4.4760976
    },
    {
      "id": 206,
      "name": "Bousval",
      "zip": 1470,
      "province": null,
      "lat": 50.6149444,
      "lng": 4.5051441
    },
    {
      "id": 207,
      "name": "Genappe",
      "zip": 1470,
      "province": null,
      "lat": 50.6108278,
      "lng": 4.4503759
    },
    {
      "id": 208,
      "name": "Loupoigne",
      "zip": 1471,
      "province": null,
      "lat": 50.5978099,
      "lng": 4.4445799
    },
    {
      "id": 209,
      "name": "Vieux-Genappe",
      "zip": 1472,
      "province": null,
      "lat": 50.6082918,
      "lng": 4.4405969
    },
    {
      "id": 210,
      "name": "Glabais",
      "zip": 1473,
      "province": null,
      "lat": 50.6302595,
      "lng": 4.4532789
    },
    {
      "id": 211,
      "name": "Ways",
      "zip": 1474,
      "province": null,
      "lat": 50.6104429,
      "lng": 4.4644969
    },
    {
      "id": 212,
      "name": "Houtain-le-Val",
      "zip": 1476,
      "province": null,
      "lat": 50.5829629,
      "lng": 4.4113773
    },
    {
      "id": 213,
      "name": "Clabecq",
      "zip": 1480,
      "province": null,
      "lat": 50.69212,
      "lng": 4.22163
    },
    {
      "id": 214,
      "name": "Oisquercq",
      "zip": 1480,
      "province": null,
      "lat": 50.66989,
      "lng": 4.21985
    },
    {
      "id": 215,
      "name": "Saintes",
      "zip": 1480,
      "province": null,
      "lat": 50.70615,
      "lng": 4.15817
    },
    {
      "id": 216,
      "name": "Tubize",
      "zip": 1480,
      "province": null,
      "lat": 50.69054,
      "lng": 4.2026
    },
    {
      "id": 217,
      "name": "Court-Saint-Etienne",
      "zip": 1490,
      "province": null,
      "lat": 50.6422504,
      "lng": 4.5680813
    },
    {
      "id": 218,
      "name": "Marbais (Bt.)",
      "zip": 1495,
      "province": null,
      "lat": 50.54956,
      "lng": 4.54067
    },
    {
      "id": 219,
      "name": "Mellery",
      "zip": 1495,
      "province": null,
      "lat": 50.58175,
      "lng": 4.56878
    },
    {
      "id": 220,
      "name": "Sart-Dames-Avelines",
      "zip": 1495,
      "province": null,
      "lat": 50.56853,
      "lng": 4.49164
    },
    {
      "id": 221,
      "name": "Tilly",
      "zip": 1495,
      "province": null,
      "lat": 50.56052,
      "lng": 4.55491
    },
    {
      "id": 222,
      "name": "Villers-la-Ville",
      "zip": 1495,
      "province": null,
      "lat": 50.5666667,
      "lng": 4.5166667
    },
    {
      "id": 223,
      "name": "Halle",
      "zip": 1500,
      "province": null,
      "lat": 50.7324848,
      "lng": 4.2349129
    },
    {
      "id": 224,
      "name": "Buizingen",
      "zip": 1501,
      "province": null,
      "lat": 50.7392326,
      "lng": 4.263916
    },
    {
      "id": 225,
      "name": "Lembeek",
      "zip": 1502,
      "province": null,
      "lat": 50.7140616,
      "lng": 4.2200436
    },
    {
      "id": 226,
      "name": "Herfelingen",
      "zip": 1540,
      "province": null,
      "lat": 50.7477711,
      "lng": 4.0998655
    },
    {
      "id": 227,
      "name": "Herne",
      "zip": 1540,
      "province": null,
      "lat": 50.7233164,
      "lng": 4.0536565
    },
    {
      "id": 228,
      "name": "Sint-Pieters-Kapelle (Bt.)",
      "zip": 1541,
      "province": null,
      "lat": 50.7070524,
      "lng": 3.9899741
    },
    {
      "id": 229,
      "name": "Bever",
      "zip": 1547,
      "province": null,
      "lat": 50.718269,
      "lng": 3.940144
    },
    {
      "id": 230,
      "name": "Bievene",
      "zip": 1547,
      "province": null,
      "lat": 50.718269,
      "lng": 3.940144
    },
    {
      "id": 231,
      "name": "Hoeilaart",
      "zip": 1560,
      "province": null,
      "lat": 50.7674863,
      "lng": 4.4740458
    },
    {
      "id": 232,
      "name": "Tollembeek",
      "zip": 1570,
      "province": null,
      "lat": 50.7410978,
      "lng": 4.006775
    },
    {
      "id": 233,
      "name": "Vollezele",
      "zip": 1570,
      "province": null,
      "lat": 50.7607201,
      "lng": 4.0252744
    },
    {
      "id": 234,
      "name": "Galmaarden",
      "zip": 1570,
      "province": null,
      "lat": 50.7529396,
      "lng": 3.9709758
    },
    {
      "id": 235,
      "name": "Oudenaken",
      "zip": 1600,
      "province": null,
      "lat": 50.78068,
      "lng": 4.19938
    },
    {
      "id": 236,
      "name": "Sint-Laureins-Berchem",
      "zip": 1600,
      "province": null,
      "lat": 50.78681,
      "lng": 4.19938
    },
    {
      "id": 237,
      "name": "Sint-Pieters-Leeuw",
      "zip": 1600,
      "province": null,
      "lat": 50.7842441,
      "lng": 4.242743
    },
    {
      "id": 238,
      "name": "Ruisbroek (Bt.)",
      "zip": 1601,
      "province": null,
      "lat": 50.79035,
      "lng": 4.29862
    },
    {
      "id": 239,
      "name": "Vlezenbeek",
      "zip": 1602,
      "province": null,
      "lat": 50.80785,
      "lng": 4.23213
    },
    {
      "id": 240,
      "name": "Drogenbos",
      "zip": 1620,
      "province": null,
      "lat": 50.7833333,
      "lng": 4.3166667
    },
    {
      "id": 241,
      "name": "Linkebeek",
      "zip": 1630,
      "province": null,
      "lat": 50.7666667,
      "lng": 4.3333333
    },
    {
      "id": 242,
      "name": "Rhode-Saint-Genese",
      "zip": 1640,
      "province": null,
      "lat": 50.74594,
      "lng": 4.35753
    },
    {
      "id": 243,
      "name": "Sint-Genesius-Rode",
      "zip": 1640,
      "province": null,
      "lat": 50.74594,
      "lng": 4.35753
    },
    {
      "id": 244,
      "name": "Beersel",
      "zip": 1650,
      "province": null,
      "lat": 50.7686913,
      "lng": 4.3120069
    },
    {
      "id": 245,
      "name": "Lot",
      "zip": 1651,
      "province": null,
      "lat": 50.76778,
      "lng": 4.27707
    },
    {
      "id": 246,
      "name": "Alsemberg",
      "zip": 1652,
      "province": null,
      "lat": 50.74163,
      "lng": 4.33613
    },
    {
      "id": 247,
      "name": "Dworp",
      "zip": 1653,
      "province": null,
      "lat": 50.72949,
      "lng": 4.30109
    },
    {
      "id": 248,
      "name": "Huizingen",
      "zip": 1654,
      "province": null,
      "lat": 50.74657,
      "lng": 4.27369
    },
    {
      "id": 249,
      "name": "Bogaarden",
      "zip": 1670,
      "province": null,
      "lat": 50.74,
      "lng": 4.13632
    },
    {
      "id": 250,
      "name": "Heikruis",
      "zip": 1670,
      "province": null,
      "lat": 50.73504,
      "lng": 4.11211
    },
    {
      "id": 251,
      "name": "Pepingen",
      "zip": 1670,
      "province": null,
      "lat": 50.7360287,
      "lng": 4.1360863
    },
    {
      "id": 252,
      "name": "Elingen",
      "zip": 1671,
      "province": null,
      "lat": 50.77926,
      "lng": 4.17119
    },
    {
      "id": 253,
      "name": "Beert",
      "zip": 1673,
      "province": null,
      "lat": 50.74103,
      "lng": 4.18184
    },
    {
      "id": 254,
      "name": "Bellingen",
      "zip": 1674,
      "province": null,
      "lat": 50.7408,
      "lng": 4.15399
    },
    {
      "id": 255,
      "name": "Sint-Martens-Bodegem",
      "zip": 1700,
      "province": null,
      "lat": 50.8614672,
      "lng": 4.2128916
    },
    {
      "id": 256,
      "name": "Sint-Ulriks-Kapelle",
      "zip": 1700,
      "province": null,
      "lat": 50.8790042,
      "lng": 4.2182047
    },
    {
      "id": 257,
      "name": "Dilbeek",
      "zip": 1700,
      "province": null,
      "lat": 50.8464512,
      "lng": 4.2620632
    },
    {
      "id": 258,
      "name": "Itterbeek",
      "zip": 1701,
      "province": null,
      "lat": 50.8381387,
      "lng": 4.2500689
    },
    {
      "id": 259,
      "name": "Groot-Bijgaarden",
      "zip": 1702,
      "province": null,
      "lat": 50.8719066,
      "lng": 4.2500012
    },
    {
      "id": 260,
      "name": "Schepdaal",
      "zip": 1703,
      "province": null,
      "lat": 50.8383485,
      "lng": 4.1958272
    },
    {
      "id": 261,
      "name": "Bekkerzeel",
      "zip": 1730,
      "province": null,
      "lat": 50.88523,
      "lng": 4.23803
    },
    {
      "id": 262,
      "name": "Kobbegem",
      "zip": 1730,
      "province": null,
      "lat": 50.90862,
      "lng": 4.25104
    },
    {
      "id": 263,
      "name": "Mollem",
      "zip": 1730,
      "province": null,
      "lat": 50.9313,
      "lng": 4.22636
    },
    {
      "id": 264,
      "name": "Asse",
      "zip": 1730,
      "province": null,
      "lat": 50.9054755,
      "lng": 4.2048959
    },
    {
      "id": 265,
      "name": "Relegem",
      "zip": 1731,
      "province": null,
      "lat": 50.89908,
      "lng": 4.27702
    },
    {
      "id": 266,
      "name": "Zellik",
      "zip": 1731,
      "province": null,
      "lat": 50.88449,
      "lng": 4.27401
    },
    {
      "id": 267,
      "name": "Ternat",
      "zip": 1740,
      "province": null,
      "lat": 50.8698353,
      "lng": 4.1808317
    },
    {
      "id": 268,
      "name": "Wambeek",
      "zip": 1741,
      "province": null,
      "lat": 50.8532484,
      "lng": 4.1628356
    },
    {
      "id": 269,
      "name": "Sint-Katherina-Lombeek",
      "zip": 1742,
      "province": null,
      "lat": 50.8732586,
      "lng": 4.1559883
    },
    {
      "id": 270,
      "name": "Mazenzele",
      "zip": 1745,
      "province": null,
      "lat": 50.942789,
      "lng": 4.1711583
    },
    {
      "id": 271,
      "name": "Opwijk",
      "zip": 1745,
      "province": null,
      "lat": 50.9666667,
      "lng": 4.1833333
    },
    {
      "id": 272,
      "name": "Gaasbeek",
      "zip": 1750,
      "province": null,
      "lat": 50.79987,
      "lng": 4.18893
    },
    {
      "id": 273,
      "name": "Sint-Kwintens-Lennik",
      "zip": 1750,
      "province": null,
      "lat": 50.80422,
      "lng": 4.15481
    },
    {
      "id": 274,
      "name": "Sint-Martens-Lennik",
      "zip": 1750,
      "province": null,
      "lat": 50.8122,
      "lng": 4.16778
    },
    {
      "id": 275,
      "name": "Lennik",
      "zip": 1750,
      "province": null,
      "lat": 50.8122,
      "lng": 4.16778
    },
    {
      "id": 276,
      "name": "Kester",
      "zip": 1755,
      "province": null,
      "lat": 50.76428,
      "lng": 4.11935
    },
    {
      "id": 277,
      "name": "Leerbeek",
      "zip": 1755,
      "province": null,
      "lat": 50.77787,
      "lng": 4.11943
    },
    {
      "id": 278,
      "name": "Oetingen",
      "zip": 1755,
      "province": null,
      "lat": 50.77347,
      "lng": 4.06312
    },
    {
      "id": 279,
      "name": "Gooik",
      "zip": 1755,
      "province": null,
      "lat": 50.7952811,
      "lng": 4.1180489
    },
    {
      "id": 280,
      "name": "Onze-Lieve-Vrouw-Lombeek",
      "zip": 1760,
      "province": null,
      "lat": 50.8197588,
      "lng": 4.1101502
    },
    {
      "id": 281,
      "name": "Pamel",
      "zip": 1760,
      "province": null,
      "lat": 50.84495,
      "lng": 4.07101
    },
    {
      "id": 282,
      "name": "Strijtem",
      "zip": 1760,
      "province": null,
      "lat": 50.8412507,
      "lng": 4.1173658
    },
    {
      "id": 283,
      "name": "Roosdaal",
      "zip": 1760,
      "province": null,
      "lat": 50.8314294,
      "lng": 4.0879776
    },
    {
      "id": 284,
      "name": "Borchtlombeek",
      "zip": 1761,
      "province": null,
      "lat": 50.8475374,
      "lng": 4.139768
    },
    {
      "id": 285,
      "name": "Liedekerke",
      "zip": 1770,
      "province": null,
      "lat": 50.86891,
      "lng": 4.08729
    },
    {
      "id": 286,
      "name": "Wemmel",
      "zip": 1780,
      "province": null,
      "lat": 50.906141,
      "lng": 4.306408
    },
    {
      "id": 287,
      "name": "Brussegem",
      "zip": 1785,
      "province": null,
      "lat": 50.92574,
      "lng": 4.26608
    },
    {
      "id": 288,
      "name": "Hamme (Bt.)",
      "zip": 1785,
      "province": null,
      "lat": 50.92042,
      "lng": 4.28061
    },
    {
      "id": 289,
      "name": "Merchtem",
      "zip": 1785,
      "province": null,
      "lat": 50.95,
      "lng": 4.2333333
    },
    {
      "id": 290,
      "name": "Essene",
      "zip": 1790,
      "province": null,
      "lat": 50.9015743,
      "lng": 4.1364265
    },
    {
      "id": 291,
      "name": "Hekelgem",
      "zip": 1790,
      "province": null,
      "lat": 50.9072267,
      "lng": 4.1084956
    },
    {
      "id": 292,
      "name": "Teralfene",
      "zip": 1790,
      "province": null,
      "lat": 50.8922688,
      "lng": 4.0987022
    },
    {
      "id": 293,
      "name": "Affligem",
      "zip": 1790,
      "province": null,
      "lat": 50.9084,
      "lng": 4.11281
    },
    {
      "id": 294,
      "name": "Peutie",
      "zip": 1800,
      "province": null,
      "lat": 50.92847,
      "lng": 4.45188
    },
    {
      "id": 295,
      "name": "Vilvoorde",
      "zip": 1800,
      "province": null,
      "lat": 50.927262,
      "lng": 4.424078
    },
    {
      "id": 296,
      "name": "Cargovil",
      "zip": 1804,
      "province": null,
      "lat": 50.947259,
      "lng": 4.427268
    },
    {
      "id": 297,
      "name": "VTM",
      "zip": 1818,
      "province": null,
      "lat": 50.914158,
      "lng": 4.397676
    },
    {
      "id": 298,
      "name": "Melsbroek",
      "zip": 1820,
      "province": null,
      "lat": 50.91512,
      "lng": 4.47846
    },
    {
      "id": 299,
      "name": "Perk",
      "zip": 1820,
      "province": null,
      "lat": 50.93488,
      "lng": 4.49592
    },
    {
      "id": 300,
      "name": "Steenokkerzeel",
      "zip": 1820,
      "province": null,
      "lat": 50.9188889,
      "lng": 4.5083333
    },
    {
      "id": 301,
      "name": "Machelen (Bt.)",
      "zip": 1830,
      "province": null,
      "lat": 50.9119,
      "lng": 4.43229
    },
    {
      "id": 302,
      "name": "Diegem",
      "zip": 1831,
      "province": null,
      "lat": 50.8976668,
      "lng": 4.4346964
    },
    {
      "id": 303,
      "name": "Malderen",
      "zip": 1840,
      "province": null,
      "lat": 51.02033,
      "lng": 4.24629
    },
    {
      "id": 304,
      "name": "Steenhuffel",
      "zip": 1840,
      "province": null,
      "lat": 50.99577,
      "lng": 4.26716
    },
    {
      "id": 305,
      "name": "Londerzeel",
      "zip": 1840,
      "province": null,
      "lat": 51.00311,
      "lng": 4.3026
    },
    {
      "id": 306,
      "name": "Grimbergen",
      "zip": 1850,
      "province": null,
      "lat": 50.9356235,
      "lng": 4.3785596
    },
    {
      "id": 307,
      "name": "Humbeek",
      "zip": 1851,
      "province": null,
      "lat": 50.9672327,
      "lng": 4.3795118
    },
    {
      "id": 308,
      "name": "Beigem",
      "zip": 1852,
      "province": null,
      "lat": 50.9528364,
      "lng": 4.3660653
    },
    {
      "id": 309,
      "name": "Strombeek-Bever",
      "zip": 1853,
      "province": null,
      "lat": 50.9103739,
      "lng": 4.35564
    },
    {
      "id": 310,
      "name": "Meise",
      "zip": 1860,
      "province": null,
      "lat": 50.9478621,
      "lng": 4.3302827
    },
    {
      "id": 311,
      "name": "Wolvertem",
      "zip": 1861,
      "province": null,
      "lat": 50.95088,
      "lng": 4.30927
    },
    {
      "id": 312,
      "name": "Nieuwenrode",
      "zip": 1880,
      "province": null,
      "lat": 50.97857,
      "lng": 4.35229
    },
    {
      "id": 313,
      "name": "Ramsdonk",
      "zip": 1880,
      "province": null,
      "lat": 51.01483,
      "lng": 4.33519
    },
    {
      "id": 314,
      "name": "Kapelle-op-den-Bos",
      "zip": 1880,
      "province": null,
      "lat": 51.009329,
      "lng": 4.363771
    },
    {
      "id": 315,
      "name": "Berg (Bt.)",
      "zip": 1910,
      "province": null,
      "lat": 51.1316639,
      "lng": 5.8439044
    },
    {
      "id": 316,
      "name": "Buken",
      "zip": 1910,
      "province": null,
      "lat": 50.93953,
      "lng": 4.61694
    },
    {
      "id": 317,
      "name": "Nederokkerzeel",
      "zip": 1910,
      "province": null,
      "lat": 50.91876,
      "lng": 4.56481
    },
    {
      "id": 318,
      "name": "Kampenhout",
      "zip": 1910,
      "province": null,
      "lat": 50.941837,
      "lng": 4.5551
    },
    {
      "id": 319,
      "name": "Nossegem",
      "zip": 1930,
      "province": null,
      "lat": 50.8781921,
      "lng": 4.5074739
    },
    {
      "id": 320,
      "name": "Zaventem",
      "zip": 1930,
      "province": null,
      "lat": 50.8795024,
      "lng": 4.4826212
    },
    {
      "id": 321,
      "name": "Brucargo",
      "zip": 1931,
      "province": null,
      "lat": 50.903293,
      "lng": 4.452214
    },
    {
      "id": 322,
      "name": "Sint-Stevens-Woluwe",
      "zip": 1932,
      "province": null,
      "lat": 50.8691972,
      "lng": 4.4502354
    },
    {
      "id": 323,
      "name": "Sterrebeek",
      "zip": 1933,
      "province": null,
      "lat": 50.8632635,
      "lng": 4.5161823
    },
    {
      "id": 324,
      "name": "Brussel X-Luchthaven Remailing",
      "zip": 1934,
      "province": null,
      "lat": 50.8923428,
      "lng": 4.4878174
    },
    {
      "id": 325,
      "name": "Bruxelles X-Aeroport Remailing",
      "zip": 1934,
      "province": null,
      "lat": 50.8923428,
      "lng": 4.4878174
    },
    {
      "id": 326,
      "name": "Kraainem",
      "zip": 1950,
      "province": null,
      "lat": 50.8610856,
      "lng": 4.4592974
    },
    {
      "id": 327,
      "name": "Wezembeek-Oppem",
      "zip": 1970,
      "province": null,
      "lat": 50.83854,
      "lng": 4.50848
    },
    {
      "id": 328,
      "name": "Eppegem",
      "zip": 1980,
      "province": null,
      "lat": 50.9621231,
      "lng": 4.4544329
    },
    {
      "id": 329,
      "name": "Zemst",
      "zip": 1980,
      "province": null,
      "lat": 50.985535,
      "lng": 4.455834
    },
    {
      "id": 330,
      "name": "Hofstade (Bt.)",
      "zip": 1981,
      "province": null,
      "lat": 50.9916699,
      "lng": 4.4924542
    },
    {
      "id": 331,
      "name": "Elewijt",
      "zip": 1982,
      "province": null,
      "lat": 50.9618503,
      "lng": 4.4964542
    },
    {
      "id": 332,
      "name": "Weerde",
      "zip": 1982,
      "province": null,
      "lat": 50.9721843,
      "lng": 4.4793294
    },
    {
      "id": 333,
      "name": "Antwerpen",
      "zip": 2000,
      "province": null,
      "lat": 51.2198771,
      "lng": 4.4011356
    },
    {
      "id": 334,
      "name": "Antwerpen",
      "zip": 2018,
      "province": null,
      "lat": 51.2037695,
      "lng": 4.4112637
    },
    {
      "id": 335,
      "name": "Antwerpen",
      "zip": 2020,
      "province": null,
      "lat": 51.1890846,
      "lng": 4.3836284
    },
    {
      "id": 336,
      "name": "Antwerpen",
      "zip": 2030,
      "province": null,
      "lat": 51.2763963,
      "lng": 4.3624604
    },
    {
      "id": 337,
      "name": "Berendrecht",
      "zip": 2040,
      "province": null,
      "lat": 51.34287,
      "lng": 4.31409
    },
    {
      "id": 338,
      "name": "Lillo",
      "zip": 2040,
      "province": null,
      "lat": 51.30436,
      "lng": 4.28026
    },
    {
      "id": 339,
      "name": "Zandvliet",
      "zip": 2040,
      "province": null,
      "lat": 51.35965,
      "lng": 4.30716
    },
    {
      "id": 340,
      "name": "Antwerpen",
      "zip": 2040,
      "province": null,
      "lat": 51.3418306,
      "lng": 4.2964605
    },
    {
      "id": 341,
      "name": "Antwerpen",
      "zip": 2050,
      "province": null,
      "lat": 51.2287575,
      "lng": 4.3740221
    },
    {
      "id": 342,
      "name": "Antwerpen",
      "zip": 2060,
      "province": null,
      "lat": 51.2293515,
      "lng": 4.4279883
    },
    {
      "id": 343,
      "name": "Burcht",
      "zip": 2070,
      "province": null,
      "lat": 51.20367,
      "lng": 4.34148
    },
    {
      "id": 344,
      "name": "Zwijndrecht",
      "zip": 2070,
      "province": null,
      "lat": 51.21904,
      "lng": 4.32659
    },
    {
      "id": 345,
      "name": "Deurne (Antwerpen)",
      "zip": 2100,
      "province": null,
      "lat": 51.1891603,
      "lng": 4.4619208
    },
    {
      "id": 346,
      "name": "Wijnegem",
      "zip": 2110,
      "province": null,
      "lat": 51.2277778,
      "lng": 4.5155556
    },
    {
      "id": 347,
      "name": "Borgerhout (Antwerpen)",
      "zip": 2140,
      "province": null,
      "lat": 51.213847,
      "lng": 4.4405633
    },
    {
      "id": 348,
      "name": "Borsbeek (Antw.)",
      "zip": 2150,
      "province": null,
      "lat": 51.194179,
      "lng": 4.481594
    },
    {
      "id": 349,
      "name": "Wommelgem",
      "zip": 2160,
      "province": null,
      "lat": 51.203981,
      "lng": 4.522188
    },
    {
      "id": 350,
      "name": "Merksem (Antwerpen)",
      "zip": 2170,
      "province": null,
      "lat": 51.2512741,
      "lng": 4.448539
    },
    {
      "id": 351,
      "name": "Ekeren (Antwerpen)",
      "zip": 2180,
      "province": null,
      "lat": 51.2807314,
      "lng": 4.4184495
    },
    {
      "id": 352,
      "name": "Morkhoven",
      "zip": 2200,
      "province": null,
      "lat": 51.1200863,
      "lng": 4.8207292
    },
    {
      "id": 353,
      "name": "Noorderwijk",
      "zip": 2200,
      "province": null,
      "lat": 51.1393923,
      "lng": 4.8388348
    },
    {
      "id": 354,
      "name": "Herentals",
      "zip": 2200,
      "province": null,
      "lat": 51.1768541,
      "lng": 4.8355946
    },
    {
      "id": 355,
      "name": "Hallaar",
      "zip": 2220,
      "province": null,
      "lat": 51.08464,
      "lng": 4.73293
    },
    {
      "id": 356,
      "name": "Heist-op-den-Berg",
      "zip": 2220,
      "province": null,
      "lat": 51.0633847,
      "lng": 4.7210601
    },
    {
      "id": 357,
      "name": "Booischot",
      "zip": 2221,
      "province": null,
      "lat": 51.05151,
      "lng": 4.77523
    },
    {
      "id": 358,
      "name": "Itegem",
      "zip": 2222,
      "province": null,
      "lat": 51.10321,
      "lng": 4.72927
    },
    {
      "id": 359,
      "name": "Wiekevorst",
      "zip": 2222,
      "province": null,
      "lat": 51.10759,
      "lng": 4.79693
    },
    {
      "id": 360,
      "name": "Schriek",
      "zip": 2223,
      "province": null,
      "lat": 51.02745,
      "lng": 4.69272
    },
    {
      "id": 361,
      "name": "Ramsel",
      "zip": 2230,
      "province": null,
      "lat": 51.03211,
      "lng": 4.8328
    },
    {
      "id": 362,
      "name": "Herselt",
      "zip": 2230,
      "province": null,
      "lat": 51.05102,
      "lng": 4.882259
    },
    {
      "id": 363,
      "name": "Houtvenne",
      "zip": 2235,
      "province": null,
      "lat": 51.04208,
      "lng": 4.80894
    },
    {
      "id": 364,
      "name": "Westmeerbeek",
      "zip": 2235,
      "province": null,
      "lat": 51.06032,
      "lng": 4.8351
    },
    {
      "id": 365,
      "name": "Hulshout",
      "zip": 2235,
      "province": null,
      "lat": 51.075,
      "lng": 4.7891667
    },
    {
      "id": 366,
      "name": "Massenhoven",
      "zip": 2240,
      "province": null,
      "lat": 51.1986273,
      "lng": 4.6364247
    },
    {
      "id": 367,
      "name": "Viersel",
      "zip": 2240,
      "province": null,
      "lat": 51.1890184,
      "lng": 4.6523097
    },
    {
      "id": 368,
      "name": "Zandhoven",
      "zip": 2240,
      "province": null,
      "lat": 51.2021793,
      "lng": 4.6554212
    },
    {
      "id": 369,
      "name": "Pulderbos",
      "zip": 2242,
      "province": null,
      "lat": 51.2165685,
      "lng": 4.6919
    },
    {
      "id": 370,
      "name": "Pulle",
      "zip": 2243,
      "province": null,
      "lat": 51.2032977,
      "lng": 4.7137397
    },
    {
      "id": 371,
      "name": "Olen",
      "zip": 2250,
      "province": null,
      "lat": 51.1662602,
      "lng": 4.8989077
    },
    {
      "id": 372,
      "name": "Oevel",
      "zip": 2260,
      "province": null,
      "lat": 51.13822,
      "lng": 4.90411
    },
    {
      "id": 373,
      "name": "Tongerlo (Antw.)",
      "zip": 2260,
      "province": null,
      "lat": 51.10533,
      "lng": 4.91565
    },
    {
      "id": 374,
      "name": "Zoerle-Parwijs",
      "zip": 2260,
      "province": null,
      "lat": 51.08879,
      "lng": 4.86894
    },
    {
      "id": 375,
      "name": "Westerlo",
      "zip": 2260,
      "province": null,
      "lat": 51.08995,
      "lng": 4.91434
    },
    {
      "id": 376,
      "name": "Herenthout",
      "zip": 2270,
      "province": null,
      "lat": 51.1394506,
      "lng": 4.7564892
    },
    {
      "id": 377,
      "name": "Gierle",
      "zip": 2275,
      "province": null,
      "lat": 51.2671512,
      "lng": 4.8677063
    },
    {
      "id": 378,
      "name": "Poederlee",
      "zip": 2275,
      "province": null,
      "lat": 51.2263125,
      "lng": 4.8353147
    },
    {
      "id": 379,
      "name": "Wechelderzande",
      "zip": 2275,
      "province": null,
      "lat": 51.2608333,
      "lng": 4.7869444
    },
    {
      "id": 380,
      "name": "Lille",
      "zip": 2275,
      "province": null,
      "lat": 51.2420452,
      "lng": 4.8232254
    },
    {
      "id": 381,
      "name": "Grobbendonk",
      "zip": 2280,
      "province": null,
      "lat": 51.1832616,
      "lng": 4.7349959
    },
    {
      "id": 382,
      "name": "Bouwel",
      "zip": 2288,
      "province": null,
      "lat": 51.1719684,
      "lng": 4.7420582
    },
    {
      "id": 383,
      "name": "Vorselaar",
      "zip": 2290,
      "province": null,
      "lat": 51.2025247,
      "lng": 4.7708827
    },
    {
      "id": 384,
      "name": "Turnhout",
      "zip": 2300,
      "province": null,
      "lat": 51.3216509,
      "lng": 4.9375577
    },
    {
      "id": 385,
      "name": "Rijkevorsel",
      "zip": 2310,
      "province": null,
      "lat": 51.348812,
      "lng": 4.762252
    },
    {
      "id": 386,
      "name": "Hoogstraten",
      "zip": 2320,
      "province": null,
      "lat": 51.403297,
      "lng": 4.7468218
    },
    {
      "id": 387,
      "name": "Meer",
      "zip": 2321,
      "province": null,
      "lat": 51.4456,
      "lng": 4.7383
    },
    {
      "id": 388,
      "name": "Minderhout",
      "zip": 2322,
      "province": null,
      "lat": 51.41654,
      "lng": 4.76339
    },
    {
      "id": 389,
      "name": "Wortel",
      "zip": 2323,
      "province": null,
      "lat": 51.39751,
      "lng": 4.79475
    },
    {
      "id": 390,
      "name": "Meerle",
      "zip": 2328,
      "province": null,
      "lat": 51.45725,
      "lng": 4.8232
    },
    {
      "id": 391,
      "name": "Merksplas",
      "zip": 2330,
      "province": null,
      "lat": 51.35805,
      "lng": 4.86339
    },
    {
      "id": 392,
      "name": "Vlimmeren",
      "zip": 2340,
      "province": null,
      "lat": 51.2971394,
      "lng": 4.7820454
    },
    {
      "id": 393,
      "name": "Beerse",
      "zip": 2340,
      "province": null,
      "lat": 51.32096,
      "lng": 4.851822
    },
    {
      "id": 394,
      "name": "Vosselaar",
      "zip": 2350,
      "province": null,
      "lat": 51.3080556,
      "lng": 4.8883333
    },
    {
      "id": 395,
      "name": "Oud-Turnhout",
      "zip": 2360,
      "province": null,
      "lat": 51.3177601,
      "lng": 4.982845
    },
    {
      "id": 396,
      "name": "Arendonk",
      "zip": 2370,
      "province": null,
      "lat": 51.322049,
      "lng": 5.0863348
    },
    {
      "id": 397,
      "name": "Ravels",
      "zip": 2380,
      "province": null,
      "lat": 51.3762015,
      "lng": 5.0185568
    },
    {
      "id": 398,
      "name": "Weelde",
      "zip": 2381,
      "province": null,
      "lat": 51.406763,
      "lng": 4.9908357
    },
    {
      "id": 399,
      "name": "Poppel",
      "zip": 2382,
      "province": null,
      "lat": 51.4471741,
      "lng": 5.0431801
    },
    {
      "id": 400,
      "name": "Baarle-Hertog",
      "zip": 2387,
      "province": null,
      "lat": 51.4069842,
      "lng": 4.8933004
    },
    {
      "id": 401,
      "name": "Oostmalle",
      "zip": 2390,
      "province": null,
      "lat": 51.301137,
      "lng": 4.7337542
    },
    {
      "id": 402,
      "name": "Westmalle",
      "zip": 2390,
      "province": null,
      "lat": 51.2968136,
      "lng": 4.6942633
    },
    {
      "id": 403,
      "name": "Malle",
      "zip": 2390,
      "province": null,
      "lat": 51.2988889,
      "lng": 4.7113889
    },
    {
      "id": 404,
      "name": "Mol",
      "zip": 2400,
      "province": null,
      "lat": 51.191087,
      "lng": 5.1170647
    },
    {
      "id": 405,
      "name": "Eindhout",
      "zip": 2430,
      "province": null,
      "lat": 51.10334,
      "lng": 4.9997
    },
    {
      "id": 406,
      "name": "Vorst (Kempen)",
      "zip": 2430,
      "province": null,
      "lat": 51.0873823,
      "lng": 5.0242977
    },
    {
      "id": 407,
      "name": "Laakdal",
      "zip": 2430,
      "province": null,
      "lat": 51.0873823,
      "lng": 5.0242977
    },
    {
      "id": 408,
      "name": "Varendonk",
      "zip": 2431,
      "province": null,
      "lat": 51.08397,
      "lng": 4.9513
    },
    {
      "id": 409,
      "name": "Veerle",
      "zip": 2431,
      "province": null,
      "lat": 51.06994,
      "lng": 4.98721
    },
    {
      "id": 410,
      "name": "Geel",
      "zip": 2440,
      "province": null,
      "lat": 51.164768,
      "lng": 4.989791
    },
    {
      "id": 411,
      "name": "Meerhout",
      "zip": 2450,
      "province": null,
      "lat": 51.1313889,
      "lng": 5.0786111
    },
    {
      "id": 412,
      "name": "Lichtaart",
      "zip": 2460,
      "province": null,
      "lat": 51.2246769,
      "lng": 4.916926
    },
    {
      "id": 413,
      "name": "Tielen",
      "zip": 2460,
      "province": null,
      "lat": 51.2434976,
      "lng": 4.8976789
    },
    {
      "id": 414,
      "name": "Kasterlee",
      "zip": 2460,
      "province": null,
      "lat": 51.2405124,
      "lng": 4.9674402
    },
    {
      "id": 415,
      "name": "Retie",
      "zip": 2470,
      "province": null,
      "lat": 51.2669664,
      "lng": 5.0842508
    },
    {
      "id": 416,
      "name": "Dessel",
      "zip": 2480,
      "province": null,
      "lat": 51.238107,
      "lng": 5.116973
    },
    {
      "id": 417,
      "name": "Balen",
      "zip": 2490,
      "province": null,
      "lat": 51.1578305,
      "lng": 5.2100666
    },
    {
      "id": 418,
      "name": "Olmen",
      "zip": 2491,
      "province": null,
      "lat": 51.1338157,
      "lng": 5.160699
    },
    {
      "id": 419,
      "name": "Koningshooikt",
      "zip": 2500,
      "province": null,
      "lat": 51.09522,
      "lng": 4.61011
    },
    {
      "id": 420,
      "name": "Lier",
      "zip": 2500,
      "province": null,
      "lat": 51.1302138,
      "lng": 4.5715092
    },
    {
      "id": 421,
      "name": "Broechem",
      "zip": 2520,
      "province": null,
      "lat": 51.1813334,
      "lng": 4.6020124
    },
    {
      "id": 422,
      "name": "Emblem",
      "zip": 2520,
      "province": null,
      "lat": 51.1620413,
      "lng": 4.605068
    },
    {
      "id": 423,
      "name": "Oelegem",
      "zip": 2520,
      "province": null,
      "lat": 51.2129972,
      "lng": 4.5997149
    },
    {
      "id": 424,
      "name": "Ranst",
      "zip": 2520,
      "province": null,
      "lat": 51.1889958,
      "lng": 4.5609189
    },
    {
      "id": 425,
      "name": "Boechout",
      "zip": 2530,
      "province": null,
      "lat": 51.1664397,
      "lng": 4.49717
    },
    {
      "id": 426,
      "name": "Vremde",
      "zip": 2531,
      "province": null,
      "lat": 51.17486,
      "lng": 4.52311
    },
    {
      "id": 427,
      "name": "Hove",
      "zip": 2540,
      "province": null,
      "lat": 51.1539,
      "lng": 4.47104
    },
    {
      "id": 428,
      "name": "Lint",
      "zip": 2547,
      "province": null,
      "lat": 51.127649,
      "lng": 4.496904
    },
    {
      "id": 429,
      "name": "Waarloos",
      "zip": 2550,
      "province": null,
      "lat": 51.105061,
      "lng": 4.4546959
    },
    {
      "id": 430,
      "name": "Kontich",
      "zip": 2550,
      "province": null,
      "lat": 51.131279,
      "lng": 4.44784
    },
    {
      "id": 431,
      "name": "Bevel",
      "zip": 2560,
      "province": null,
      "lat": 51.13774,
      "lng": 4.68038
    },
    {
      "id": 432,
      "name": "Kessel",
      "zip": 2560,
      "province": null,
      "lat": 51.13915,
      "lng": 4.62968
    },
    {
      "id": 433,
      "name": "Nijlen",
      "zip": 2560,
      "province": null,
      "lat": 51.1613664,
      "lng": 4.6705129
    },
    {
      "id": 434,
      "name": "Duffel",
      "zip": 2570,
      "province": null,
      "lat": 51.095286,
      "lng": 4.5099
    },
    {
      "id": 435,
      "name": "Beerzel",
      "zip": 2580,
      "province": null,
      "lat": 51.05786,
      "lng": 4.66764
    },
    {
      "id": 436,
      "name": "Putte",
      "zip": 2580,
      "province": null,
      "lat": 51.054027,
      "lng": 4.633303
    },
    {
      "id": 437,
      "name": "Gestel",
      "zip": 2590,
      "province": null,
      "lat": 51.1284,
      "lng": 4.67316
    },
    {
      "id": 438,
      "name": "Berlaar",
      "zip": 2590,
      "province": null,
      "lat": 51.1163889,
      "lng": 4.6566667
    },
    {
      "id": 439,
      "name": "Berchem (Antwerpen)",
      "zip": 2600,
      "province": null,
      "lat": 51.1955771,
      "lng": 4.4188392
    },
    {
      "id": 440,
      "name": "Wilrijk (Antwerpen)",
      "zip": 2610,
      "province": null,
      "lat": 51.1683102,
      "lng": 4.3942868
    },
    {
      "id": 441,
      "name": "Hemiksem",
      "zip": 2620,
      "province": null,
      "lat": 51.14518,
      "lng": 4.33834
    },
    {
      "id": 442,
      "name": "Schelle",
      "zip": 2627,
      "province": null,
      "lat": 51.125843,
      "lng": 4.341279
    },
    {
      "id": 443,
      "name": "Aartselaar",
      "zip": 2630,
      "province": null,
      "lat": 51.1338889,
      "lng": 4.3847222
    },
    {
      "id": 444,
      "name": "Mortsel",
      "zip": 2640,
      "province": null,
      "lat": 51.1666667,
      "lng": 4.45
    },
    {
      "id": 445,
      "name": "Edegem",
      "zip": 2650,
      "province": null,
      "lat": 51.152982,
      "lng": 4.4380338
    },
    {
      "id": 446,
      "name": "Hoboken (Antwerpen)",
      "zip": 2660,
      "province": null,
      "lat": 51.1775732,
      "lng": 4.34992
    },
    {
      "id": 447,
      "name": "Walem",
      "zip": 2800,
      "province": null,
      "lat": 51.0676813,
      "lng": 4.4572147
    },
    {
      "id": 448,
      "name": "Mechelen",
      "zip": 2800,
      "province": null,
      "lat": 51.0258791,
      "lng": 4.4775365
    },
    {
      "id": 449,
      "name": "Heffen",
      "zip": 2801,
      "province": null,
      "lat": 51.0468914,
      "lng": 4.4137291
    },
    {
      "id": 450,
      "name": "Hombeek",
      "zip": 2811,
      "province": null,
      "lat": 51.014356,
      "lng": 4.4427697
    },
    {
      "id": 451,
      "name": "Leest",
      "zip": 2811,
      "province": null,
      "lat": 51.0328978,
      "lng": 4.4176682
    },
    {
      "id": 452,
      "name": "Muizen (Mechelen)",
      "zip": 2812,
      "province": null,
      "lat": 51.0103798,
      "lng": 4.5157593
    },
    {
      "id": 453,
      "name": "Rijmenam",
      "zip": 2820,
      "province": null,
      "lat": 51.0037609,
      "lng": 4.5902677
    },
    {
      "id": 454,
      "name": "Bonheiden",
      "zip": 2820,
      "province": null,
      "lat": 51.02221,
      "lng": 4.54803
    },
    {
      "id": 455,
      "name": "Blaasveld",
      "zip": 2830,
      "province": null,
      "lat": 51.05583,
      "lng": 4.37719
    },
    {
      "id": 456,
      "name": "Heindonk",
      "zip": 2830,
      "province": null,
      "lat": 51.0673,
      "lng": 4.40756
    },
    {
      "id": 457,
      "name": "Tisselt",
      "zip": 2830,
      "province": null,
      "lat": 51.03437,
      "lng": 4.35717
    },
    {
      "id": 458,
      "name": "Willebroek",
      "zip": 2830,
      "province": null,
      "lat": 51.05983,
      "lng": 4.36404
    },
    {
      "id": 459,
      "name": "Reet",
      "zip": 2840,
      "province": null,
      "lat": 51.1011334,
      "lng": 4.4125882
    },
    {
      "id": 460,
      "name": "Terhagen",
      "zip": 2840,
      "province": null,
      "lat": 51.0791977,
      "lng": 4.3992612
    },
    {
      "id": 461,
      "name": "Rumst",
      "zip": 2840,
      "province": null,
      "lat": 51.0804212,
      "lng": 4.4217895
    },
    {
      "id": 462,
      "name": "Niel",
      "zip": 2845,
      "province": null,
      "lat": 51.108922,
      "lng": 4.334816
    },
    {
      "id": 463,
      "name": "Boom",
      "zip": 2850,
      "province": null,
      "lat": 51.091541,
      "lng": 4.368926
    },
    {
      "id": 464,
      "name": "Sint-Katelijne-Waver",
      "zip": 2860,
      "province": null,
      "lat": 51.0614235,
      "lng": 4.5055555
    },
    {
      "id": 465,
      "name": "Onze-Lieve-Vrouw-Waver",
      "zip": 2861,
      "province": null,
      "lat": 51.0639394,
      "lng": 4.5754857
    },
    {
      "id": 466,
      "name": "Breendonk",
      "zip": 2870,
      "province": null,
      "lat": 51.04309,
      "lng": 4.32204
    },
    {
      "id": 467,
      "name": "Liezele",
      "zip": 2870,
      "province": null,
      "lat": 51.06082,
      "lng": 4.28023
    },
    {
      "id": 468,
      "name": "Ruisbroek (Antw.)",
      "zip": 2870,
      "province": null,
      "lat": 51.08799,
      "lng": 4.33107
    },
    {
      "id": 469,
      "name": "Puurs",
      "zip": 2870,
      "province": null,
      "lat": 51.075,
      "lng": 4.28925
    },
    {
      "id": 470,
      "name": "Hingene",
      "zip": 2880,
      "province": null,
      "lat": 51.1032985,
      "lng": 4.2687874
    },
    {
      "id": 471,
      "name": "Mariekerke (Bornem)",
      "zip": 2880,
      "province": null,
      "lat": 51.0634883,
      "lng": 4.1923418
    },
    {
      "id": 472,
      "name": "Weert",
      "zip": 2880,
      "province": null,
      "lat": 51.1034075,
      "lng": 4.190123
    },
    {
      "id": 473,
      "name": "Bornem",
      "zip": 2880,
      "province": null,
      "lat": 51.0996057,
      "lng": 4.2404586
    },
    {
      "id": 474,
      "name": "Lippelo",
      "zip": 2890,
      "province": null,
      "lat": 51.04215,
      "lng": 4.2586
    },
    {
      "id": 475,
      "name": "Oppuurs",
      "zip": 2890,
      "province": null,
      "lat": 51.06607,
      "lng": 4.24199
    },
    {
      "id": 476,
      "name": "Sint-Amands",
      "zip": 2890,
      "province": null,
      "lat": 51.05595,
      "lng": 4.20946
    },
    {
      "id": 477,
      "name": "Schoten",
      "zip": 2900,
      "province": null,
      "lat": 51.2497532,
      "lng": 4.4977063
    },
    {
      "id": 478,
      "name": "Essen",
      "zip": 2910,
      "province": null,
      "lat": 51.4616667,
      "lng": 4.4558333
    },
    {
      "id": 479,
      "name": "Kalmthout",
      "zip": 2920,
      "province": null,
      "lat": 51.38298,
      "lng": 4.47518
    },
    {
      "id": 480,
      "name": "Brasschaat",
      "zip": 2930,
      "province": null,
      "lat": 51.29227,
      "lng": 4.49419
    },
    {
      "id": 481,
      "name": "Hoevenen",
      "zip": 2940,
      "province": null,
      "lat": 51.3061855,
      "lng": 4.4047295
    },
    {
      "id": 482,
      "name": "Stabroek",
      "zip": 2940,
      "province": null,
      "lat": 51.3322222,
      "lng": 4.3727778
    },
    {
      "id": 483,
      "name": "Kapellen (Antw.)",
      "zip": 2950,
      "province": null,
      "lat": 51.3361728,
      "lng": 4.4481538
    },
    {
      "id": 484,
      "name": "Sint-Job-in-'t-Goor",
      "zip": 2960,
      "province": null,
      "lat": 51.29827,
      "lng": 4.5732
    },
    {
      "id": 485,
      "name": "Sint-Lenaarts",
      "zip": 2960,
      "province": null,
      "lat": 51.34869,
      "lng": 4.67703
    },
    {
      "id": 486,
      "name": "Brecht",
      "zip": 2960,
      "province": null,
      "lat": 51.3496533,
      "lng": 4.6377227
    },
    {
      "id": 487,
      "name": "'s Gravenwezel",
      "zip": 2970,
      "province": null,
      "lat": 51.26292,
      "lng": 4.56096
    },
    {
      "id": 488,
      "name": "Schilde",
      "zip": 2970,
      "province": null,
      "lat": 51.2407352,
      "lng": 4.5834231
    },
    {
      "id": 489,
      "name": "Halle (Kempen)",
      "zip": 2980,
      "province": null,
      "lat": 51.2398459,
      "lng": 4.6465058
    },
    {
      "id": 490,
      "name": "Zoersel",
      "zip": 2980,
      "province": null,
      "lat": 51.2682227,
      "lng": 4.7125694
    },
    {
      "id": 491,
      "name": "Loenhout",
      "zip": 2990,
      "province": null,
      "lat": 51.3990063,
      "lng": 4.6432288
    },
    {
      "id": 492,
      "name": "Wuustwezel",
      "zip": 2990,
      "province": null,
      "lat": 51.38945,
      "lng": 4.5912313
    },
    {
      "id": 493,
      "name": "Leuven",
      "zip": 3000,
      "province": null,
      "lat": 50.8815197,
      "lng": 4.6967578
    },
    {
      "id": 494,
      "name": "Heverlee",
      "zip": 3001,
      "province": null,
      "lat": 50.86386,
      "lng": 4.69594
    },
    {
      "id": 495,
      "name": "Kessel-Lo (Leuven)",
      "zip": 3010,
      "province": null,
      "lat": 50.88514,
      "lng": 4.73571
    },
    {
      "id": 496,
      "name": "Wilsele",
      "zip": 3012,
      "province": null,
      "lat": 50.89047,
      "lng": 4.69451
    },
    {
      "id": 497,
      "name": "Wijgmaal (Brabant)",
      "zip": 3018,
      "province": null,
      "lat": 50.92624,
      "lng": 4.70195
    },
    {
      "id": 498,
      "name": "Veltem-Beisem",
      "zip": 3020,
      "province": null,
      "lat": 50.9063184,
      "lng": 4.620825
    },
    {
      "id": 499,
      "name": "Winksele",
      "zip": 3020,
      "province": null,
      "lat": 50.8974666,
      "lng": 4.6435179
    },
    {
      "id": 500,
      "name": "Herent",
      "zip": 3020,
      "province": null,
      "lat": 50.908172,
      "lng": 4.670524
    },
    {
      "id": 501,
      "name": "Loonbeek",
      "zip": 3040,
      "province": null,
      "lat": 50.80972,
      "lng": 4.61029
    },
    {
      "id": 502,
      "name": "Neerijse",
      "zip": 3040,
      "province": null,
      "lat": 50.81743,
      "lng": 4.62345
    },
    {
      "id": 503,
      "name": "Ottenburg",
      "zip": 3040,
      "province": null,
      "lat": 50.75199,
      "lng": 4.61579
    },
    {
      "id": 504,
      "name": "Sint-Agatha-Rode",
      "zip": 3040,
      "province": null,
      "lat": 50.78559,
      "lng": 4.63408
    },
    {
      "id": 505,
      "name": "Huldenberg",
      "zip": 3040,
      "province": null,
      "lat": 50.7885995,
      "lng": 4.5880687
    },
    {
      "id": 506,
      "name": "Oud-Heverlee",
      "zip": 3050,
      "province": null,
      "lat": 50.8282606,
      "lng": 4.659534
    },
    {
      "id": 507,
      "name": "Sint-Joris-Weert",
      "zip": 3051,
      "province": null,
      "lat": 50.80281,
      "lng": 4.6544
    },
    {
      "id": 508,
      "name": "Blanden",
      "zip": 3052,
      "province": null,
      "lat": 50.82558,
      "lng": 4.70916
    },
    {
      "id": 509,
      "name": "Haasrode",
      "zip": 3053,
      "province": null,
      "lat": 50.83159,
      "lng": 4.72988
    },
    {
      "id": 510,
      "name": "Vaalbeek",
      "zip": 3054,
      "province": null,
      "lat": 50.82553,
      "lng": 4.68938
    },
    {
      "id": 511,
      "name": "Korbeek-Dijle",
      "zip": 3060,
      "province": null,
      "lat": 50.83807,
      "lng": 4.6382
    },
    {
      "id": 512,
      "name": "Bertem",
      "zip": 3060,
      "province": null,
      "lat": 50.8632924,
      "lng": 4.6307637
    },
    {
      "id": 513,
      "name": "Leefdaal",
      "zip": 3061,
      "province": null,
      "lat": 50.84866,
      "lng": 4.5939
    },
    {
      "id": 514,
      "name": "Kortenberg",
      "zip": 3070,
      "province": null,
      "lat": 50.8852298,
      "lng": 4.536917
    },
    {
      "id": 515,
      "name": "Erps-Kwerps",
      "zip": 3071,
      "province": null,
      "lat": 50.9006097,
      "lng": 4.5607782
    },
    {
      "id": 516,
      "name": "Everberg",
      "zip": 3078,
      "province": null,
      "lat": 50.8788296,
      "lng": 4.5712345
    },
    {
      "id": 517,
      "name": "Meerbeek",
      "zip": 3078,
      "province": null,
      "lat": 50.8818641,
      "lng": 4.5892898
    },
    {
      "id": 518,
      "name": "Duisburg",
      "zip": 3080,
      "province": null,
      "lat": 50.81569,
      "lng": 4.55184
    },
    {
      "id": 519,
      "name": "Vossem",
      "zip": 3080,
      "province": null,
      "lat": 50.83577,
      "lng": 4.56026
    },
    {
      "id": 520,
      "name": "Tervuren",
      "zip": 3080,
      "province": null,
      "lat": 50.82595,
      "lng": 4.50775
    },
    {
      "id": 521,
      "name": "Overijse",
      "zip": 3090,
      "province": null,
      "lat": 50.77381,
      "lng": 4.53475
    },
    {
      "id": 522,
      "name": "Rotselaar",
      "zip": 3110,
      "province": null,
      "lat": 50.9535967,
      "lng": 4.7215113
    },
    {
      "id": 523,
      "name": "Wezemaal",
      "zip": 3111,
      "province": null,
      "lat": 50.9482,
      "lng": 4.75541
    },
    {
      "id": 524,
      "name": "Werchter",
      "zip": 3118,
      "province": null,
      "lat": 50.97278,
      "lng": 4.70007
    },
    {
      "id": 525,
      "name": "Tremelo",
      "zip": 3120,
      "province": null,
      "lat": 50.9956159,
      "lng": 4.7159551
    },
    {
      "id": 526,
      "name": "Baal",
      "zip": 3128,
      "province": null,
      "lat": 50.99555,
      "lng": 4.75304
    },
    {
      "id": 527,
      "name": "Betekom",
      "zip": 3130,
      "province": null,
      "lat": 50.98566,
      "lng": 4.7817
    },
    {
      "id": 528,
      "name": "Begijnendijk",
      "zip": 3130,
      "province": null,
      "lat": 51.0186111,
      "lng": 4.785
    },
    {
      "id": 529,
      "name": "Keerbergen",
      "zip": 3140,
      "province": null,
      "lat": 51.0057936,
      "lng": 4.6320416
    },
    {
      "id": 530,
      "name": "Tildonk",
      "zip": 3150,
      "province": null,
      "lat": 50.94327,
      "lng": 4.64449
    },
    {
      "id": 531,
      "name": "Wespelaar",
      "zip": 3150,
      "province": null,
      "lat": 50.95991,
      "lng": 4.63884
    },
    {
      "id": 532,
      "name": "Haacht",
      "zip": 3150,
      "province": null,
      "lat": 50.9766667,
      "lng": 4.6372222
    },
    {
      "id": 533,
      "name": "Boortmeerbeek",
      "zip": 3190,
      "province": null,
      "lat": 50.9803397,
      "lng": 4.5744373
    },
    {
      "id": 534,
      "name": "Hever",
      "zip": 3191,
      "province": null,
      "lat": 50.995,
      "lng": 4.55135
    },
    {
      "id": 535,
      "name": "Gelrode",
      "zip": 3200,
      "province": null,
      "lat": 50.96548,
      "lng": 4.80272
    },
    {
      "id": 536,
      "name": "Aarschot",
      "zip": 3200,
      "province": null,
      "lat": 50.9806151,
      "lng": 4.827381
    },
    {
      "id": 537,
      "name": "Langdorp",
      "zip": 3201,
      "province": null,
      "lat": 50.99531,
      "lng": 4.87083
    },
    {
      "id": 538,
      "name": "Rillaar",
      "zip": 3202,
      "province": null,
      "lat": 50.97438,
      "lng": 4.89422
    },
    {
      "id": 539,
      "name": "Linden",
      "zip": 3210,
      "province": null,
      "lat": 50.89393,
      "lng": 4.77215
    },
    {
      "id": 540,
      "name": "Lubbeek",
      "zip": 3210,
      "province": null,
      "lat": 50.8813339,
      "lng": 4.8292252
    },
    {
      "id": 541,
      "name": "Binkom",
      "zip": 3211,
      "province": null,
      "lat": 50.87119,
      "lng": 4.88439
    },
    {
      "id": 542,
      "name": "Pellenberg",
      "zip": 3212,
      "province": null,
      "lat": 50.87116,
      "lng": 4.79603
    },
    {
      "id": 543,
      "name": "Kortrijk-Dutsel",
      "zip": 3220,
      "province": null,
      "lat": 50.92569,
      "lng": 4.80762
    },
    {
      "id": 544,
      "name": "Sint-Pieters-Rode",
      "zip": 3220,
      "province": null,
      "lat": 50.93239,
      "lng": 4.82057
    },
    {
      "id": 545,
      "name": "Holsbeek",
      "zip": 3220,
      "province": null,
      "lat": 50.9248584,
      "lng": 4.7861502
    },
    {
      "id": 546,
      "name": "Nieuwrode",
      "zip": 3221,
      "province": null,
      "lat": 50.94955,
      "lng": 4.83339
    },
    {
      "id": 547,
      "name": "Scherpenheuvel",
      "zip": 3270,
      "province": null,
      "lat": 50.9742707,
      "lng": 4.9785767
    },
    {
      "id": 548,
      "name": "Scherpenheuvel-Zichem",
      "zip": 3270,
      "province": null,
      "lat": 50.9742707,
      "lng": 4.9785767
    },
    {
      "id": 549,
      "name": "Averbode",
      "zip": 3271,
      "province": null,
      "lat": 51.0305467,
      "lng": 4.977454
    },
    {
      "id": 550,
      "name": "Zichem",
      "zip": 3271,
      "province": null,
      "lat": 51.0006721,
      "lng": 4.9830118
    },
    {
      "id": 551,
      "name": "Messelbroek",
      "zip": 3272,
      "province": null,
      "lat": 50.9933331,
      "lng": 4.9274801
    },
    {
      "id": 552,
      "name": "Testelt",
      "zip": 3272,
      "province": null,
      "lat": 51.016921,
      "lng": 4.9549334
    },
    {
      "id": 553,
      "name": "Deurne (Bt.)",
      "zip": 3290,
      "province": null,
      "lat": 51.03936,
      "lng": 5.09648
    },
    {
      "id": 554,
      "name": "Schaffen",
      "zip": 3290,
      "province": null,
      "lat": 50.99975,
      "lng": 5.08484
    },
    {
      "id": 555,
      "name": "Webbekom",
      "zip": 3290,
      "province": null,
      "lat": 50.9722766,
      "lng": 5.0720072
    },
    {
      "id": 556,
      "name": "Diest",
      "zip": 3290,
      "province": null,
      "lat": 51.000489,
      "lng": 5.0978641
    },
    {
      "id": 557,
      "name": "Kaggevinne",
      "zip": 3293,
      "province": null,
      "lat": 50.97937,
      "lng": 5.01896
    },
    {
      "id": 558,
      "name": "Molenstede",
      "zip": 3294,
      "province": null,
      "lat": 51.00378,
      "lng": 5.01347
    },
    {
      "id": 559,
      "name": "Bost",
      "zip": 3300,
      "province": null,
      "lat": 50.78839,
      "lng": 4.94063
    },
    {
      "id": 560,
      "name": "Goetsenhoven",
      "zip": 3300,
      "province": null,
      "lat": 50.76781,
      "lng": 4.95114
    },
    {
      "id": 561,
      "name": "Hakendover",
      "zip": 3300,
      "province": null,
      "lat": 50.79706,
      "lng": 4.98525
    },
    {
      "id": 562,
      "name": "Kumtich",
      "zip": 3300,
      "province": null,
      "lat": 50.82246,
      "lng": 4.88742
    },
    {
      "id": 563,
      "name": "Oorbeek",
      "zip": 3300,
      "province": null,
      "lat": 50.79811,
      "lng": 4.8924
    },
    {
      "id": 564,
      "name": "Oplinter",
      "zip": 3300,
      "province": null,
      "lat": 50.82923,
      "lng": 4.98757
    },
    {
      "id": 565,
      "name": "Sint-Margriete-Houtem (Tienen)",
      "zip": 3300,
      "province": null,
      "lat": 50.82836,
      "lng": 4.95539
    },
    {
      "id": 566,
      "name": "Vissenaken",
      "zip": 3300,
      "province": null,
      "lat": 50.83768,
      "lng": 4.90484
    },
    {
      "id": 567,
      "name": "Tienen",
      "zip": 3300,
      "province": null,
      "lat": 50.808465,
      "lng": 4.943227
    },
    {
      "id": 568,
      "name": "Meldert (Bt.)",
      "zip": 3320,
      "province": null,
      "lat": 50.78801,
      "lng": 4.83772
    },
    {
      "id": 569,
      "name": "Hoegaarden",
      "zip": 3320,
      "province": null,
      "lat": 50.7806488,
      "lng": 4.8685676
    },
    {
      "id": 570,
      "name": "Outgaarden",
      "zip": 3321,
      "province": null,
      "lat": 50.76521,
      "lng": 4.91793
    },
    {
      "id": 571,
      "name": "Drieslinter",
      "zip": 3350,
      "province": null,
      "lat": 50.84605,
      "lng": 5.05048
    },
    {
      "id": 572,
      "name": "Melkwezer",
      "zip": 3350,
      "province": null,
      "lat": 50.8253,
      "lng": 5.06139
    },
    {
      "id": 573,
      "name": "Neerhespen",
      "zip": 3350,
      "province": null,
      "lat": 50.79538,
      "lng": 5.03655
    },
    {
      "id": 574,
      "name": "Neerlinter",
      "zip": 3350,
      "province": null,
      "lat": 50.83974,
      "lng": 5.02226
    },
    {
      "id": 575,
      "name": "Orsmaal-Gussenhoven",
      "zip": 3350,
      "province": null,
      "lat": 50.8041667,
      "lng": 5.0622222
    },
    {
      "id": 576,
      "name": "Overhespen",
      "zip": 3350,
      "province": null,
      "lat": 50.79538,
      "lng": 5.03655
    },
    {
      "id": 577,
      "name": "Wommersom",
      "zip": 3350,
      "province": null,
      "lat": 50.81338,
      "lng": 5.01796
    },
    {
      "id": 578,
      "name": "Linter",
      "zip": 3350,
      "province": null,
      "lat": 50.84151,
      "lng": 5.03661
    },
    {
      "id": 579,
      "name": "Korbeek-Lo",
      "zip": 3360,
      "province": null,
      "lat": 50.86019,
      "lng": 4.76269
    },
    {
      "id": 580,
      "name": "Lovenjoel",
      "zip": 3360,
      "province": null,
      "lat": 50.85813,
      "lng": 4.78148
    },
    {
      "id": 581,
      "name": "Opvelp",
      "zip": 3360,
      "province": null,
      "lat": 50.81009,
      "lng": 4.79333
    },
    {
      "id": 582,
      "name": "Bierbeek",
      "zip": 3360,
      "province": null,
      "lat": 50.8279,
      "lng": 4.75981
    },
    {
      "id": 583,
      "name": "Kerkom",
      "zip": 3370,
      "province": null,
      "lat": 50.85519,
      "lng": 4.87451
    },
    {
      "id": 584,
      "name": "Neervelp",
      "zip": 3370,
      "province": null,
      "lat": 50.821,
      "lng": 4.80811
    },
    {
      "id": 585,
      "name": "Roosbeek",
      "zip": 3370,
      "province": null,
      "lat": 50.83564,
      "lng": 4.86231
    },
    {
      "id": 586,
      "name": "Vertrijk",
      "zip": 3370,
      "province": null,
      "lat": 50.82976,
      "lng": 4.83455
    },
    {
      "id": 587,
      "name": "Willebringen",
      "zip": 3370,
      "province": null,
      "lat": 50.81281,
      "lng": 4.84491
    },
    {
      "id": 588,
      "name": "Boutersem",
      "zip": 3370,
      "province": null,
      "lat": 50.8333333,
      "lng": 4.8333333
    },
    {
      "id": 589,
      "name": "Bunsbeek",
      "zip": 3380,
      "province": null,
      "lat": 50.842165,
      "lng": 4.9426464
    },
    {
      "id": 590,
      "name": "Glabbeek-Zuurbemde",
      "zip": 3380,
      "province": null,
      "lat": 50.8602725,
      "lng": 4.9583256
    },
    {
      "id": 591,
      "name": "Kapellen (Bt.)",
      "zip": 3381,
      "province": null,
      "lat": 50.8852681,
      "lng": 4.9501898
    },
    {
      "id": 592,
      "name": "Attenrode",
      "zip": 3384,
      "province": null,
      "lat": 50.8771186,
      "lng": 4.9242614
    },
    {
      "id": 593,
      "name": "Houwaart",
      "zip": 3390,
      "province": null,
      "lat": 50.93291,
      "lng": 4.85789
    },
    {
      "id": 594,
      "name": "Sint-Joris-Winge",
      "zip": 3390,
      "province": null,
      "lat": 50.90443,
      "lng": 4.87258
    },
    {
      "id": 595,
      "name": "Tielt (Bt.)",
      "zip": 3390,
      "province": null,
      "lat": 50.94079,
      "lng": 4.90429
    },
    {
      "id": 596,
      "name": "Tielt-Winge",
      "zip": 3390,
      "province": null,
      "lat": 50.9206968,
      "lng": 4.8866603
    },
    {
      "id": 597,
      "name": "Meensel-Kiezegem",
      "zip": 3391,
      "province": null,
      "lat": 50.8965,
      "lng": 4.92592
    },
    {
      "id": 598,
      "name": "Eliksem",
      "zip": 3400,
      "province": null,
      "lat": 50.78487,
      "lng": 5.00968
    },
    {
      "id": 599,
      "name": "Ezemaal",
      "zip": 3400,
      "province": null,
      "lat": 50.77609,
      "lng": 5.00016
    },
    {
      "id": 600,
      "name": "Laar",
      "zip": 3400,
      "province": null,
      "lat": 50.77158,
      "lng": 5.02572
    },
    {
      "id": 601,
      "name": "Neerwinden",
      "zip": 3400,
      "province": null,
      "lat": 50.75318,
      "lng": 5.0489
    },
    {
      "id": 602,
      "name": "Overwinden",
      "zip": 3400,
      "province": null,
      "lat": 50.75318,
      "lng": 5.0489
    },
    {
      "id": 603,
      "name": "Rumsdorp",
      "zip": 3400,
      "province": null,
      "lat": 50.76619,
      "lng": 5.07623
    },
    {
      "id": 604,
      "name": "Wange",
      "zip": 3400,
      "province": null,
      "lat": 50.78598,
      "lng": 5.03176
    },
    {
      "id": 605,
      "name": "Landen",
      "zip": 3400,
      "province": null,
      "lat": 50.7628602,
      "lng": 5.042102
    },
    {
      "id": 606,
      "name": "Waasmont",
      "zip": 3401,
      "province": null,
      "lat": 50.72724,
      "lng": 5.06231
    },
    {
      "id": 607,
      "name": "Walsbets",
      "zip": 3401,
      "province": null,
      "lat": 50.73723,
      "lng": 5.08528
    },
    {
      "id": 608,
      "name": "Walshoutem",
      "zip": 3401,
      "province": null,
      "lat": 50.72373,
      "lng": 5.09553
    },
    {
      "id": 609,
      "name": "Wezeren",
      "zip": 3401,
      "province": null,
      "lat": 50.73008,
      "lng": 5.10485
    },
    {
      "id": 610,
      "name": "Attenhoven",
      "zip": 3404,
      "province": null,
      "lat": 50.76652,
      "lng": 5.09308
    },
    {
      "id": 611,
      "name": "Neerlanden",
      "zip": 3404,
      "province": null,
      "lat": 50.75318,
      "lng": 5.0489
    },
    {
      "id": 612,
      "name": "Budingen",
      "zip": 3440,
      "province": null,
      "lat": 50.8654,
      "lng": 5.09811
    },
    {
      "id": 613,
      "name": "Dormaal",
      "zip": 3440,
      "province": null,
      "lat": 50.80722,
      "lng": 5.0985
    },
    {
      "id": 614,
      "name": "Halle-Booienhoven",
      "zip": 3440,
      "province": null,
      "lat": 50.80475,
      "lng": 5.11168
    },
    {
      "id": 615,
      "name": "Helen-Bos",
      "zip": 3440,
      "province": null,
      "lat": 50.8175,
      "lng": 5.0841667
    },
    {
      "id": 616,
      "name": "Zoutleeuw",
      "zip": 3440,
      "province": null,
      "lat": 50.8333333,
      "lng": 5.1
    },
    {
      "id": 617,
      "name": "Grazen",
      "zip": 3450,
      "province": null,
      "lat": 50.87478,
      "lng": 5.13164
    },
    {
      "id": 618,
      "name": "Geetbets",
      "zip": 3450,
      "province": null,
      "lat": 50.8902757,
      "lng": 5.1095641
    },
    {
      "id": 619,
      "name": "Rummen",
      "zip": 3454,
      "province": null,
      "lat": 50.88902,
      "lng": 5.16568
    },
    {
      "id": 620,
      "name": "Assent",
      "zip": 3460,
      "province": null,
      "lat": 50.95248,
      "lng": 5.0159
    },
    {
      "id": 621,
      "name": "Bekkevoort",
      "zip": 3460,
      "province": null,
      "lat": 50.9426234,
      "lng": 4.985641
    },
    {
      "id": 622,
      "name": "Molenbeek-Wersbeek",
      "zip": 3461,
      "province": null,
      "lat": 50.91848,
      "lng": 4.94157
    },
    {
      "id": 623,
      "name": "Ransberg",
      "zip": 3470,
      "province": null,
      "lat": 50.87398,
      "lng": 5.03683
    },
    {
      "id": 624,
      "name": "Kortenaken",
      "zip": 3470,
      "province": null,
      "lat": 50.8973765,
      "lng": 5.0663974
    },
    {
      "id": 625,
      "name": "Hoeleden",
      "zip": 3471,
      "province": null,
      "lat": 50.86828,
      "lng": 4.9869
    },
    {
      "id": 626,
      "name": "Kersbeek-Miskom",
      "zip": 3472,
      "province": null,
      "lat": 50.885,
      "lng": 4.9947222
    },
    {
      "id": 627,
      "name": "Waanrode",
      "zip": 3473,
      "province": null,
      "lat": 50.91619,
      "lng": 5.00464
    },
    {
      "id": 628,
      "name": "Sint-Lambrechts-Herk",
      "zip": 3500,
      "province": null,
      "lat": 50.89841,
      "lng": 5.30741
    },
    {
      "id": 629,
      "name": "Hasselt",
      "zip": 3500,
      "province": null,
      "lat": 50.9215166,
      "lng": 5.3447405
    },
    {
      "id": 630,
      "name": "Wimmertingen",
      "zip": 3501,
      "province": null,
      "lat": 50.88411,
      "lng": 5.35242
    },
    {
      "id": 631,
      "name": "Spalbeek",
      "zip": 3510,
      "province": null,
      "lat": 50.94907,
      "lng": 5.22338
    },
    {
      "id": 632,
      "name": "Kermt (Hasselt)",
      "zip": 3510,
      "province": null,
      "lat": 50.94767,
      "lng": 5.24676
    },
    {
      "id": 633,
      "name": "Kuringen",
      "zip": 3511,
      "province": null,
      "lat": 50.94387,
      "lng": 5.29789
    },
    {
      "id": 634,
      "name": "Stokrooie",
      "zip": 3511,
      "province": null,
      "lat": 50.96619,
      "lng": 5.28134
    },
    {
      "id": 635,
      "name": "Stevoort",
      "zip": 3512,
      "province": null,
      "lat": 50.9183,
      "lng": 5.25316
    },
    {
      "id": 636,
      "name": "Zonhoven",
      "zip": 3520,
      "province": null,
      "lat": 50.989287,
      "lng": 5.37246
    },
    {
      "id": 637,
      "name": "Helchteren",
      "zip": 3530,
      "province": null,
      "lat": 51.0565512,
      "lng": 5.3826921
    },
    {
      "id": 638,
      "name": "Houthalen",
      "zip": 3530,
      "province": null,
      "lat": 51.0314627,
      "lng": 5.3763541
    },
    {
      "id": 639,
      "name": "Houthalen-Helchteren",
      "zip": 3530,
      "province": null,
      "lat": 51.029469,
      "lng": 5.371824
    },
    {
      "id": 640,
      "name": "Berbroek",
      "zip": 3540,
      "province": null,
      "lat": 50.95032,
      "lng": 5.20843
    },
    {
      "id": 641,
      "name": "Donk",
      "zip": 3540,
      "province": null,
      "lat": 50.93814,
      "lng": 5.13438
    },
    {
      "id": 642,
      "name": "Schulen",
      "zip": 3540,
      "province": null,
      "lat": 50.95991,
      "lng": 5.19052
    },
    {
      "id": 643,
      "name": "Herk-de-Stad",
      "zip": 3540,
      "province": null,
      "lat": 50.939241,
      "lng": 5.1687329
    },
    {
      "id": 644,
      "name": "Loksbergen",
      "zip": 3545,
      "province": null,
      "lat": 50.93429,
      "lng": 5.06952
    },
    {
      "id": 645,
      "name": "Zelem",
      "zip": 3545,
      "province": null,
      "lat": 50.97813,
      "lng": 5.10579
    },
    {
      "id": 646,
      "name": "Halen",
      "zip": 3545,
      "province": null,
      "lat": 50.9485,
      "lng": 5.11117
    },
    {
      "id": 647,
      "name": "Heusden (Limb.)",
      "zip": 3550,
      "province": null,
      "lat": 51.02345,
      "lng": 5.30972
    },
    {
      "id": 648,
      "name": "Zolder",
      "zip": 3550,
      "province": null,
      "lat": 51.02345,
      "lng": 5.30972
    },
    {
      "id": 649,
      "name": "Heusden-Zolder",
      "zip": 3550,
      "province": null,
      "lat": 51.03432,
      "lng": 5.28417
    },
    {
      "id": 650,
      "name": "Linkhout",
      "zip": 3560,
      "province": null,
      "lat": 50.96812,
      "lng": 5.13687
    },
    {
      "id": 651,
      "name": "Meldert (Limb.)",
      "zip": 3560,
      "province": null,
      "lat": 50.99867,
      "lng": 5.1418
    },
    {
      "id": 652,
      "name": "Lummen",
      "zip": 3560,
      "province": null,
      "lat": 50.9861111,
      "lng": 5.1908333
    },
    {
      "id": 653,
      "name": "Alken",
      "zip": 3570,
      "province": null,
      "lat": 50.87609,
      "lng": 5.30767
    },
    {
      "id": 654,
      "name": "Beringen",
      "zip": 3580,
      "province": null,
      "lat": 51.0473373,
      "lng": 5.2214769
    },
    {
      "id": 655,
      "name": "Beverlo",
      "zip": 3581,
      "province": null,
      "lat": 51.0873,
      "lng": 5.21898
    },
    {
      "id": 656,
      "name": "Koersel",
      "zip": 3582,
      "province": null,
      "lat": 51.05844,
      "lng": 5.27176
    },
    {
      "id": 657,
      "name": "Paal",
      "zip": 3583,
      "province": null,
      "lat": 51.03953,
      "lng": 5.17165
    },
    {
      "id": 658,
      "name": "Diepenbeek",
      "zip": 3590,
      "province": null,
      "lat": 50.91083,
      "lng": 5.41336
    },
    {
      "id": 659,
      "name": "Genk",
      "zip": 3600,
      "province": null,
      "lat": 50.96613,
      "lng": 5.5021
    },
    {
      "id": 660,
      "name": "Gellik",
      "zip": 3620,
      "province": null,
      "lat": 50.8839114,
      "lng": 5.6103183
    },
    {
      "id": 661,
      "name": "Neerharen",
      "zip": 3620,
      "province": null,
      "lat": 50.9088851,
      "lng": 5.6808314
    },
    {
      "id": 662,
      "name": "Veldwezelt",
      "zip": 3620,
      "province": null,
      "lat": 50.8677788,
      "lng": 5.6305961
    },
    {
      "id": 663,
      "name": "Lanaken",
      "zip": 3620,
      "province": null,
      "lat": 50.8919602,
      "lng": 5.6398572
    },
    {
      "id": 664,
      "name": "Rekem",
      "zip": 3621,
      "province": null,
      "lat": 50.9224749,
      "lng": 5.6957272
    },
    {
      "id": 665,
      "name": "Eisden",
      "zip": 3630,
      "province": null,
      "lat": 50.9854566,
      "lng": 5.7140769
    },
    {
      "id": 666,
      "name": "Leut",
      "zip": 3630,
      "province": null,
      "lat": 50.9900244,
      "lng": 5.7350908
    },
    {
      "id": 667,
      "name": "Mechelen-aan-de-Maas",
      "zip": 3630,
      "province": null,
      "lat": 50.9797588,
      "lng": 5.7018567
    },
    {
      "id": 668,
      "name": "Meeswijk",
      "zip": 3630,
      "province": null,
      "lat": 50.969278,
      "lng": 5.6619185
    },
    {
      "id": 669,
      "name": "Opgrimbie",
      "zip": 3630,
      "province": null,
      "lat": 50.9432913,
      "lng": 5.6809579
    },
    {
      "id": 670,
      "name": "Vucht",
      "zip": 3630,
      "province": null,
      "lat": 50.9787264,
      "lng": 5.7106715
    },
    {
      "id": 671,
      "name": "Maasmechelen",
      "zip": 3630,
      "province": null,
      "lat": 50.969278,
      "lng": 5.6619185
    },
    {
      "id": 672,
      "name": "Boorsem",
      "zip": 3631,
      "province": null,
      "lat": 50.9408237,
      "lng": 5.7197843
    },
    {
      "id": 673,
      "name": "Uikhoven",
      "zip": 3631,
      "province": null,
      "lat": 50.923677,
      "lng": 5.7183356
    },
    {
      "id": 674,
      "name": "Kessenich",
      "zip": 3640,
      "province": null,
      "lat": 51.15142,
      "lng": 5.82297
    },
    {
      "id": 675,
      "name": "Molenbeersel",
      "zip": 3640,
      "province": null,
      "lat": 51.17002,
      "lng": 5.73758
    },
    {
      "id": 676,
      "name": "Ophoven",
      "zip": 3640,
      "province": null,
      "lat": 51.12559,
      "lng": 5.80204
    },
    {
      "id": 677,
      "name": "Kinrooi",
      "zip": 3640,
      "province": null,
      "lat": 51.14552,
      "lng": 5.74113
    },